stop_id,stop_name,zone_id,stop_lat,stop_lon,stop_desc
RgqMpbyP,Charminar,Charminar,17.3586779379233,78.4740276935276,CHARMINAR
ZesADyKB,Shahalibanda,Shahalibanda,17.3547499301873,78.4730243996454,SHALIBANDA twd  Charminar
CSCQevOc,Kilwat,Kilwat,17.3601274663828,78.4713749367239,KILWATH twd Afzalgunj
RcYax5EA,Moosabowli,Moosabowli,17.3642745722327,78.4666682034731,MOOSABOWLY twd CBS
UoDW1Rgg,City College,City College,17.3674526453567,78.468290285547,CITY College twd Afzalgunj
s4V6Ks4J,Madina,Madina,17.3703739526348,78.4755915518183,MADINA twd Afzalgunj
RvkZZP0d,Afzalgunj,Afzalgunj,17.3734,78.4759,AFZALGUNJ twd Nampally
RprCTGDf,Osmangunj,Osmangunj,17.3801592673954,78.4749823530744,OSMANGUNJ twd Nampally
TB1fWaY6,Gandhibavan,Gandhibavan,17.3883456592865,78.4713882267767,GANDHI Bhavan twd Nampally
0Yr3hLAU,Nampally Railway Station,Nampally Railway Station,17.3921594944245,78.4700497866643,NAMPALLY Railway Station twd Ameerpet
48NXpBnL,Nampally Public Garden,Nampally Public Garden,17.396278,78.470819,NAMPALLY PUBLIC GARDEN twd Ameerpet
d2BfiTmX,Assembly,Assembly,17.400243,78.470014,ASSEMBLY twd Miyapur
USn7tbeB,Lakdikapool,Lakdikapool,17.403609,78.464974,LAKDIKAPOOL twd Lingampally
FDukZMjs,Chintal Basthi,Chintal Basthi,17.408898,78.460376,CHINTHAL Basthi twd Patancheru
3UhhD7eG,Khairatabad,Khairatabad,17.4141654370489,78.4586397146155,KHAIRATABAD twd Patancheru
5g4se2Gv,Khairatabad,Khairatabad,17.415785,78.457715,KHAIRATABAD Rto twd Koti
3OS7bBog,Irram Manzil,Irram Manzil,17.4207529745163,78.4556972452341,IRRUM MANZIL TWD Patancheru
fAXfvzII,Nims Hospital,Nims Hospital,17.4230084956761,78.4543890506029,NIMS Hospital twd Patancheruvu
YY5SqKbk,Punjagutta,Punjagutta,17.4263228789209,78.4526288578677,PUNJAGUTTA twd Patancheruvu
DqrzaqZu,Pvr Mall Bus Stop,Pvr Mall Bus Stop,17.429381,78.450406,PVR Mall twd Patancheruvu
8A7oqeuK,Ameerpet,Ameerpet,17.431553,78.44765,AMEERPET twd Patancheru
Z9DjfexL,Maithrivanam,Maithrivanam,17.4400455444335,78.4423641399989,MAITRIVANAM twd Patancheru
OCMZCOeo,Sr Nagar,Sr Nagar,17.4429652533606,78.4407372772693,SR NAGAR twd Patancheru
C5vY3BnB,Esi Hospital,Esi Hospital,17.448534,78.437619,ESI Hospital twd Patancheruvu
zsjaTD5B,Erragadda,Erragadda,17.45617,78.433778,ERRAGADDA twd Patancheruvu
M2X1Ipi9,Bharath Nagar,Bharath Nagar,17.4672320840219,78.4287786531682,BHARATH Nagar twd Patancheru
3DO7lfEx,Moosapet,Moosapet,17.4708131052901,78.4266757867274,MOOSAPET twd Patancheru
lRqEgaCy,Prashanth Nagar Bus Station,Prashanth Nagar Bus Station,17.4747639938041,78.4255492638318,PRASHANTH NGR twd JBS
7XcsjLgc,Balnagar,Balnagar,17.4678792576715,78.4460842558063,BALANAGAR twd Jeedimetla
odvoWxTv,Idpl Water Tank,Idpl Water Tank,17.4817254492905,78.4490239615526,IDPL WATER TANK twd jeedimetla
eE6hZh6A,Idpl Colony,Idpl Colony,17.48791105,78.45000699,IDPL Colony twd Jagadgirigutta
m180Kw2G,Ganesh Nagar Chintal,Ganesh Nagar Chintal,17.49089,78.45099,GANESH NAGAR twd Jeedimetla
2mWqvKcq,Chintal,Chintal,17.4954,78.452103,CHINTAL twd Jeedimetla
xmSPBDXm,Quthubullapur X Road,Quthubullapur X Road,17.4988973901797,78.4517598142825,QUTHBULLAPUR X RD twd jeedimetla
CSMDq4oC,Hmt,Hmt,17.5028457131321,78.4502873428154,HMT twd Gdm
WQorkUId,Gajularam X Road,Gajularam X Road,17.510098,78.447706,GAJULARAM X Road twd Jeedimetla
G1qKP8Cw,Shapur Nagar,Shapur Nagar,17.5160012189185,78.44690233469,SHAPUR NAGAR twd Jeedimetla
U3va4YT2,Rythu Bazar,Rythu Bazar,17.5176100977818,78.4465912079349,RYTHUBAZAR-JDM twd  jeedimetla
r2e2nKni,Sub Station-Jeedimetla,Sub Station-Jeedimetla,17.522757333829,78.443386182835,JEEDIMETLA Substation twd Jeedimetla
cR5ySdRd,Jeedimetla,Jeedimetla,17.5263603742832,78.4403121683698,JEEDIMETLA twd Gandimysamma
Tv9yBqAe,Saibaba Nagar,Saibaba Nagar,17.536032,78.434701,SAIBABA NAGAR twd Gandimaisamma
R0Cm6Ou4,Suraram X Road,Suraram X Road,17.5414896115876,78.433754146099,SURARAM X Road twd Bahadurpalle
5E4f69aT,Bahadur Pally X Road,Bahadur Pally X Road,17.5605816217093,78.4307647277243,BAHADURPALLY X Road twd Gandimaisamma
o9dJvoaR,Gandimaisamma,Gandimaisamma,17.5750752414753,78.4231942875569,GANDIMAISAMMA twd Gagillapur
xOUsyoa9,Mehdipatnam Bus Depot,Mehdipatnam Bus Depot,17.392219,78.440777,MEHDIPATNAM Bus Depot
NUmq3A4e,Mehdipatnam,Mehdipatnam,17.394725176503,78.4401726329458,MEHDIPATNAM
jQUipGEE,Nanal Nagar,Nanal Nagar,17.3951285939056,78.4273423211172,NANAL Nagar X Road twd Langarhouse
JDSxM2WM,Langar House,Langar House,17.37843771,78.4209751,LANGAR House twd Kali Mandir
7guxqq8S,Bapu-Ghat,Bapu-Ghat,17.374015,78.417593,Bapu Ghat twd Sedam
832f0Tns,Tippu Khan Bridge,Tippu Khan Bridge,17.3710263938323,78.4046226919575,TIPU KHAN BRIDGE twd KaliI Mandir
1dz6Of8P,Suncity,Suncity,17.36476225,78.39571808,SUNCITY twd Chevella
iXcFXrHu,Bandlaguda X Road,Bandlaguda X Road,17.3595680039347,78.3879889547825,BANDLAGUDA X Road twd Moinabad
VHOGEY4R,Peeram Cheru,Peeram Cheru,17.3544984086384,78.3790216386236,PEERAMCHERUVU twd Moinabad
gg1O2ENL,Kalimandir,Kalimandir,17.3523319158945,78.3770152830632,KALIMANDIR twd Moinabad
54suq5uU,Appa Junction,Appa Junction,17.3509353823721,78.358016599364,APPA twd Moinabad
qccftrvg,Golden Farms,Golden Farms,17.3536900829418,78.3421030568725,GOLDEN FARM twd Moinabad
FLnjOddn,Osman Sagar X Rd,Osman Sagar X Rd,17.3531014085184,78.3308846424825,OSMAN Sagar X Road twd Moinabad
BAsXhVXt,Aziz Nagar X Roads,Aziz Nagar X Roads,17.3441405101479,78.3248162287542,AZIZ Nagar X Road twd Chevella
T8BKEMqk,Himayathnagar X Road,Himayathnagar X Road,17.3386325066237,78.3119065256401,HIMAYAT Nagar X Road twd Moinabad
cVsyEttO,Jbiet College Amdapur X Road Bus Stop,Jbiet College Amdapur X Road Bus Stop,17.33140703,78.29720456,JBIET College twd Chevella
dHLhPczE,Decent Poultry,Decent Poultry,17.3310725785397,78.2931339740753,DECENT POULTRIES twd Chevella
zGYSG7bl,Sathsang,Sathsang,17.3300279118566,78.2801198974909,SATSANG twd Chevella
4HJn54j9,Moinabad Bus Stop,Moinabad Bus Stop,17.328394,78.272705,MOINABAD twd Sedam
lnjUAaN4,Ayaan College,Ayaan College,17.31438034,78.25669684,AYAAN INSTITUTE OF MEDICAL SCIENCE twd Vikarabad
wlPJRBNI,Kanakamamidi,Kanakamamidi,17.313230608327,78.2489177584908,KANAKAMAMIDI ROAD twd Vikarabad
uCKYOKAS,Kethireddy Pally X Road,Kethireddy Pally X Road,17.3101910558261,78.2288923504272,KETHIREDDYPALLY X Road twd Vikarabad
R1auSRjt,Appareddyguda X Road,Appareddyguda X Road,17.310196184866,78.2237640015452,APPAREDDYGUDA X Road twd Vikarabad
YXAEgiIa,Tholkatta X Roads,Tholkatta X Roads,17.3134559371845,78.2169190049171,THOLKATTA X Roads twd Vikarabad
nJkfMg0G,Mudimyal,Mudimyal,17.31947984,78.20895821,MUDIMYAL twd Vikarabad
BugaVeWl,Kandawada X Road,Kandawada X Road,17.3071821813279,78.1823748323694,KANDAWADA X ROAD twd Vikarabad
3F5hR7yF,Malkapur,Malkapur,17.312,78.172,MALKAPUR twd Vikarabad
SAhnyNt4,Kesaram,Kesaram,17.30638448,78.1610097,KESARAM twd Vikarabad
oi5Cgsii,Chevella Bs,Chevella Bs,17.313487,78.138914,CHEVELLA Bus Station
fTpo5ntA,Kesaram,Kesaram,17.30654741,78.16108078,KESARAM twd Himayatsagar
rFMmZ6lY,Malkapur,Malkapur,17.3122833003731,78.1719732296992,MALKAPUR twd Hyderanad
CExXC0fB,Kandawada X Road,Kandawada X Road,17.3072513370426,78.1824137340463,KANDAWADA X ROAD twd Himayatnagar
tFPKmxrs,Mudimyal,Mudimyal,17.3196244863605,78.2090869486037,MUDIMYAL twd Himayatsagar
cIwp9JJA,Tholkatta X Roads,Tholkatta X Roads,17.3134828652038,78.2169860663658,THOLKATTA X Roads twd MGBS
jAH3WOsZ,Appareddyguda X Road,Appareddyguda X Road,17.310229763875,78.2237717136935,APPAREDDYGUDA X Road twd Hyderbad
03dKkFHP,Kethireddy Pally X Road,Kethireddy Pally X Road,17.3102601740201,78.2290184497833,KETHIREDDYPALLY X road twd MGBS
sUYRAR1o,Kanakamamidi,Kanakamamidi,17.3132484672966,78.2487916954735,KANAKAMAMIDI ROAD twd Himayat nagar
nfkRd9nz,Ayaan College,Ayaan College,17.31466329,78.25676423,AYAAN College twd Hyderabad
4BcvWaFF,Moinabad Bus Stop,Moinabad Bus Stop,17.328963,78.27318,MOINABAD twd Hyderabad
uboghRWM,Sathsang,Sathsang,17.3302429901364,78.2801467174028,SATSANG twd Mehdipatnam
kqVSR8tV,Decent Poultry,Decent Poultry,17.3312722639582,78.2931554305028,DECENT POULTRIES twd Mehdipatnam
EhiQ5Y3H,Jbiet College Amdapur X Road Bus Stop,Jbiet College Amdapur X Road Bus Stop,17.3316217666677,78.297382590759,JBIET College twd Mehdipatnam
vZHy3ifq,Himayathnagar X Road,Himayathnagar X Road,17.3387766883806,78.3119925637218,HIMAYATH NAGAR  X ROAD  twd Mehdipatnam
F5kjgZBH,Aziz Nagar X Roads,Aziz Nagar X Roads,17.3441891911772,78.3246579529391,AZIZ Nagar X Road twd Mehdipatnam
2QgJHKxC,Osman Sagar X Rd,Osman Sagar X Rd,17.3531973109365,78.3305561031737,OSMAN Sagar X Road twd Mehdipatnam
b8ltroJx,Golden Farms,Golden Farms,17.3537540685662,78.3420708721613,GOLDEN FARM twd Mehdipatnam
kLUdNhDw,Appa Junction,Appa Junction,17.350843348535,78.3583071739993,APPA twd Mehdipatnam
BOZ6ud3G,Kalimandir,Kalimandir,17.352451191287,78.3768691480659,KALIMANDIR twd Mehdipatnam
Ed7fO2rc,Peeram Cheru,Peeram Cheru,17.3547365052,78.3790783231,PEERAMCHERU twd Mehdipatnam
IJzE9Z23,Bandlaguda X Road,Bandlaguda X Road,17.3597731196,78.3879953938,BANDLAGUDA X Road twd Mehdipatnam
dHUG4Xle,Suncity,Suncity,17.3649131228,78.3957168515,SUNCITY twd Mehdipatnam
GFxQbpHA,Tippu Khan Bridge,Tippu Khan Bridge,17.3710977510594,78.4044692202793,TIPPU KHAN BRIDGE twd Mehdipatnam
nIO17N4o,Langar House,Langar House,17.374278,78.417719,LANGER HOUSE
9kJ7lz1Q,Langar House,Langar House,17.3815830470045,78.4218370815429,LANGER HOUSE twd Mehdipatnam
rBENVtQo,Nanal Nagar,Nanal Nagar,17.3954877056342,78.4273249243984,NANAL Nagar twd Mehidipatnam
q9jjNdnh,Mehdipatnam,Mehdipatnam,17.3952073711,78.4403379976,MEHDIPATNAM twd Secundrabad
F0sCusJT,Chandrayangutta,Chandrayangutta,17.3272271949536,78.4751379345258,CHANDRAYAN GUTTA twd Falaknuma
sifjiJIl,Farooqnagar,Farooqnagar,17.329644,78.470292,FAROOQNAGAR Bus Station
viDlsUWZ,Engine Bowli,Engine Bowli,17.3365662237586,78.4679501198833,ENGINE BOWLI twd Afzalgunj
8YMIlyS3,Falaknuma Depot,Falaknuma Depot,17.3372275520799,78.4670250016503,FALAKNUMA Bus Depot
W4vA60DC,Sarojini Devi Hsptl,Sarojini Devi Hsptl,17.398719,78.444326,SAROJINI DEVI Hospital twd Koti
VKioR5jw,Nmdc,Nmdc,17.3989614802167,78.4495523571968,NMDC twd Uppal
m9io71dj,Masab Tank,Masab Tank,17.4042608047588,78.4519046545028,MASAB Tank twd Jublee Hills
qo0aajne,Pension Office,Pension Office,17.4074738361027,78.4510845331515,PENSION OFFICE twd Panjagutta
0UenuDJ9,Care Hospital-Banjara Hills,Care Hospital-Banjara Hills,17.4136267317493,78.4504334634602,CARE Hospital twd Secunderabad
ppmUDuzH,Banjarahills Road No 7,Banjarahills Road No 7,17.4168067841173,78.4487932920455,BANJARA HILLS Road no 7 Taj Krishna twd Punjagutta
cz4pE5ER,Gvk Mall,Gvk Mall,17.418730990367,78.4481039643287,G.V.K. twd Ameerpet
ueRNhDvS,Nims Hospital,Nims Hospital,17.4219533608239,78.4491151571274,NIMS Hospital twd Uppal
knSGAN1e,Punjagutta,Punjagutta,17.4266210389731,78.4511107206344,PANJAGUTA twd Secunderabad
V9ddvO25,Green Land,Green Land,17.4307269898978,78.4559078514575,GREENLAND twd Begumpet
qRKZzfuC,Rj College,Rj College,17.4350376981346,78.455286918826,RJ COLLEGE twd Secunderbad
vmdvxAEq,Hps Begumpet,Hps Begumpet,17.4427992466057,78.4588914737105,BEGUMPET HPS twd Secunderabad
sNtT8ZDC,Shyamlal Begumpet,Shyamlal Begumpet,17.444383,78.461112,SHYAMLAL twd Secunderabad
GjAAZkb2,Shoppers Stop Begumpet,Shoppers Stop Begumpet,17.4451223191775,78.465001887711,SHOPPERS STOP twd Secunderabad
Q6FWRb1R,Prakash Nagar Begumpet,Prakash Nagar Begumpet,17.4443060953376,78.4715304501541,PRAKASH Nagar twd Secunderabad
joW0g0Qq,Police Lines,Police Lines,17.443691,78.478073,POLICE LINE twd Secunderabad
Cmq2kMFs,Wesley College,Wesley College,17.4434719115117,78.4820526878565,WESLEY COLLEGE twd Sec-bad
PwJCFyTq,Paradise,Paradise,17.4434949367817,78.4866499897696,PARADISE METRO STN twd Secunderabad
KIkHjkpt,Plaza,Plaza,17.4433030523969,78.4906572251304,PLAZA twd Secunderabad
X0STVNy1,Patny,Patny,17.4431827588464,78.496246933937,PATNY twd Secunderabad
QeBJG7EM,Secunderabad,Secunderabad,17.4429473253,78.5037088394165,ST ANNS twd Rathifile bus station
TaPAXfJn,Sangeeth-Isckon,Sangeeth-Isckon,17.4411676303389,78.5056360089039,SANGEETH Cross Road twd Chilkalguda
whMygxc9,Secunderabad,Secunderabad,17.4371305954537,78.5051479719086,BLUESEA CAFE twd Tarnaka
G7Crwnuu,Chilkalguda,Chilkalguda,17.433305252319,78.5067719214351,CHILKALGUDA twd Uppal
HxjRAjhe,Alugadda Bhavi,Alugadda Bhavi,17.435588,78.514285,ALUGADDABAVI twd Uppal
UXUFKwWS,Mettuguda,Mettuguda,17.434563,78.520907,METTUGUDA twd Uppal
are2VdTm,Tarnaka X Road,Tarnaka X Road,17.4258059447663,78.5327196118636,TARNAKA twd Yadagirigutta
8w1CBdo1,Habsiguda,Habsiguda,17.4212973761853,78.5397758335197,HABSIGUDA twd Uppal
jtlvGReR,Hmt Nagar Nacharam,Hmt Nagar Nacharam,17.42443969,78.54731418,HMT NAGAR twd Mallapur
vuGTfEKr,Nacharam,Nacharam,17.4280821729076,78.5509425419988,NACHARAM Village twd Mallapur
2b3B8JFF,Esi Hospital Nacharam,Esi Hospital Nacharam,17.43094713,78.55324522,NACHARAM ESI HOSPITAL twd Mallapur
hjFi7eQB,Nacharam X Road,Nacharam X Road,17.4336356264874,78.5544589149426,NACHARAM X RD twd Chengicherla
U3ikAqGd,Delhi Tubes Nacharam,Delhi Tubes Nacharam,17.438300227071,78.5583394443616,DELHI Tubes twd Mallapur
LwrbPeVu,Janapriya - Mallapur,Janapriya - Mallapur,17.4417732177453,78.5652816487785,JANAPRIYA twd ECIL
S6LmWE5N,Mallapur,Mallapur,17.4454882815445,78.5674059391021,MALLAPUR BUS STOP twd Ecil
YMEKiiCq,Noma Function Hall Nacharam,Noma Function Hall Nacharam,17.4471950161069,78.5719978809356,NOMA twd Chengicharla
ko9Sd2Em,Nfc X Roads,Nfc X Roads,17.4484705786562,78.5757945477962,NFC X ROADS twd Cherlapally
pLgbAwvD,Ashoknagar-Mallapur,Ashoknagar-Mallapur,17.4500045510484,78.5808290556728,ASHOK NAGAR twd ECIL
9mgpyHL4,Hcl,Hcl,17.4555544617915,78.5817369951529,HCL X Road twd Cherlapally
giCRzBi8,Ecil Factory,Ecil Factory,17.4674059699133,78.5738861579233,ECIL Factory twd Mallapur
4wFW2Us9,Ecil X Roads,Ecil X Roads,17.4720598355094,78.5710778819624,ECIL X ROAD twd Uppal
Q2XxpKE2,Kushaiguda,Kushaiguda,17.480318357777,78.5750153660774,KUSHAIGUDA twd Ghatkesar
3a2eLPl2,Nagarjuna Nagar Clny,Nagarjuna Nagar Clny,17.4801444,78.58167026,NAGARJUNA Nagar twd Nagaram
Y7DNcZgJ,Chakripuram,Chakripuram,17.4787758892324,78.5861384868621,CHAKRIPURAM twd Charlapally
ltOoIRPh,Cherlapally Water Tank,Cherlapally Water Tank,17.4712836646728,78.5969675704837,WATER TANK twd Cherlapally
GTRQRJwL,Cherlapally Railway Station,Cherlapally Railway Station,17.459040645971,78.6043882479733,CHERLAPALLY Railway Station twd Cherlapally
suDhrwkI,Cherlapally,Cherlapally,17.4632852440669,78.6114545023148,CHERLAPALLY Bus Stand
noE4riD7,Cherlapally Railway Station,Cherlapally Railway Station,17.4593028966669,78.6047127808248,CHERLAPALLY Railway Station twd Mallapur
0NDQJIGP,Chakripuram,Chakripuram,17.4792003646718,78.5854679346084,CHAKRIPURAM twd Secunderabad
fUjweVGF,Nagarjuna Nagar Clny,Nagarjuna Nagar Clny,17.47988472,78.58190194,NAGARJUNA Nagar twd Secunderabad
vQw0DmF3,Kushaiguda,Kushaiguda,17.48034395,78.57518468,KUSHAIGUDA twd Secunderabad
hTYT4HDY,Ecil Factory,Ecil Factory,17.4672473910286,78.5738915205002,ECIL FACTORY twd ECIL X Road
L9yKLGu1,Hcl X Roads,Hcl X Roads,17.4552577806504,78.5813695192337,HCL X ROAD twd ECIL
x7w566Y0,Delhi Tubes Nacharam,Delhi Tubes Nacharam,17.4380993820983,78.558230994496,DELHI Tubes twd Nacharam
iicT2HB0,Nacharam X Road,Nacharam X Road,17.4334665158339,78.5552099206196,NACHARAM X ROAD twd Uppal
KXSa7N9r,Hmt Nagar Nacharam,Hmt Nagar Nacharam,17.4240287902412,78.5471713542938,HMT NAGAR twd Tarnaka
Vu61jLWF,Habsiguda,Habsiguda,17.421528,78.538962,HABSIGUDA twd Tarnaka
jyBSJxcj,Tarnaka X Road,Tarnaka X Road,17.4257061390095,78.5322274249487,TARNAKA twd Secunderabad
7kbuoXmo,Mettuguda,Mettuguda,17.4362017151634,78.5206600651144,METTUGUDA twd Secunderabad railway station
V2FZzv9s,Alugadda Bhavi,Alugadda Bhavi,17.4353141310885,78.5143840348896,ALUGADDA BHAVI twd JBS
CFbXbiQw,Chilkalguda,Chilkalguda,17.4330621481197,78.5063829527358,CHILKALGUDA X Road twd Secunderabad
u3bvsFOc,Secunderabad,Secunderabad,17.434259,78.501577,SECUNDERABAD Railway Station
ok41NPb5,Patny,Patny,17.4429600750994,78.4966734051704,PATNY twd Begumpet
YPoQZzru,Plaza,Plaza,17.4432046216649,78.4901194205191,PLAZA twd Begumpet
GVLWcO80,Paradise,Paradise,17.4431409505787,78.4862176340182,PARADISE Metro Station twd Begumpet
C5RkuVFZ,Wesley College,Wesley College,17.443347223031,78.4819314419627,WESLEY COLLEGE twd Begumpet
jwo9ywmN,Police Lines,Police Lines,17.4436510619643,78.474993109703,POLICE LINES twd Ameerpet
b6Ed1APh,Prakash Nagar Begumpet,Prakash Nagar Begumpet,17.4439918370554,78.471393585205,PRAKASH Nagar twd Begumpet
xjTl0c9a,Shoppers Stop Begumpet,Shoppers Stop Begumpet,17.4448396158677,78.4649043157696,SHOPPER STOP twd Ameerpet
0QXQxf3w,Shyamlal Begumpet,Shyamlal Begumpet,17.4442096195101,78.4617282450199,SHYAMLAL  BANGLA twd Ameerpet
vICEAYpg,Hps Begumpet,Hps Begumpet,17.442554874152,78.4592780470848,BEGUMPET HPS twd Ameerpet
KgDSpIOK,Rj College,Rj College,17.4349994016809,78.4555792589056,RJ COLLEGE twd Panjagutta
AWE6D07a,Punjagutta,Punjagutta,17.4264522459602,78.4514111280441,PUNJAGUTTA twd Mehdipatnam
2GQGAQJB,Nims Hospital,Nims Hospital,17.4214592438495,78.4489622712135,NIMS twd Mehdipatnam
MCux42LE,Gvk Mall,Gvk Mall,17.4179480437937,78.4490185992533,GVK MALL twd Koti
sIoTCd6R,Banjarahills Road No 7,Banjarahills Road No 7,17.4163318319705,78.4489354512987,BANJARA HILLS Road no 7 Taj Krishna twd Mehdipatnam
A3gmwwj9,Care Hospital-Banjara Hills,Care Hospital-Banjara Hills,17.413632810042,78.4506118297576,CARE Hospital twd RGIA
0EWpgffm,Pension Office,Pension Office,17.4078848864357,78.4511589933682,PENSION OFFICE twd Mehdipatnam
wPpbiQd0,Masab Tank,Masab Tank,17.4041635781713,78.4522452950477,MASAB TANK twd Lakdikapul
xLkxr76E,Nmdc,Nmdc,17.3987272168,78.4495738149,NMDC twd Mehdipatnam
gV9iNXAG,Sarojini Devi Hospital,Sarojini Devi Hospital,17.3985430377386,78.4444668889045,SAROJINI DEVI HOSPITAL twd Lingampally
BJCimp4m,Mehdipatnam,Mehdipatnam,17.3944638148,78.4394866005,MEHDIPATNAM
2ZWzuUTZ,Tippu Khan Bridge,Tippu Khan Bridge,17.3733944639891,78.4044027095116,TIPPU KHAN twd Shankarpally
jsSYaRZ9,Ramdev Guda,Ramdev Guda,17.3752373284242,78.3960396322129,RAMDEVGUDA twd Shankerpally
n1MXMQMq,Age Bar,Age Bar,17.3765639438362,78.3858183770027,AGE BAR  twd Narsingi
Pm13hpJV,Ibrahim Bagh,Ibrahim Bagh,17.3767149716043,78.3819177746772,IBRAHIM BAGH twd Narsing
DJ1vRbAq,Taramathi,Taramathi,17.3767885598025,78.378913701413,TARAMATHI twd Shankarpally
4gvSfGeB,Neknapur,Neknapur,17.3789451805492,78.3699148901551,NEKNAPUR twd Shankarpally
kPZTFaTS,Hanuman Temple,Hanuman Temple,17.381,78.367,HANUMAN TEMPLE twd Shankarpally
AmuowBqz,Narsinghi,Narsinghi,17.3842313438346,78.3614210039377,NARSINGI twd Gandipet
iGveCYEN,Kokapet X Rd,Kokapet X Rd,17.387619,78.341096,KOKAPET X ROAD twd ICFAI
7SoNNXKp,Grape Garden,Grape Garden,17.3868226890788,78.3380287882804,GRAPED GARDEN twd Khanpur
sFWHBI1O,Gandipet X Road,Gandipet X Road,17.385,78.331,GANDIPET X ROAD  twd Shankarpally
fh2ezkIf,Cbit,Cbit,17.3935355900935,78.3202242851257,CBIT twd Shankarpalli
R37p0OO9,Khanapur,Khanapur,17.397,78.302,KHANAPUR twd Mokila
pqdPrHsX,Miyakhan Gadda,Miyakhan Gadda,17.4049339244627,78.2849559192181,MIYAKHAN GADDA twd Ibs
ouE3tJiF,Janwada X Road,Janwada X Road,17.4127373715148,78.2667651795391,JANWADA X ROAD twd Ibs
VRc2v6Sq,Kollur X Road,Kollur X Road,17.4177739930999,78.2499048122928,KOLLUR X ROAD twd Mokila
B2E1U0Po,Dontapally,Dontapally,17.4185558406518,78.224317859737,DONTHANAPALLY X ROADtwd Shankarpally
Bots9uZJ,Indian Business School ( Ibs ),Indian Business School ( Ibs ),17.418925644352,78.2169377809786,IBS twd Shankarpally
bSu8VLLo,Pilli Gundla Dontapalli,Pilli Gundla Dontapalli,17.422,78.21,PRODDUTUR X ROAD twd Shankarpally
1EbmKtfx,Mokila Bus Stop,Mokila Bus Stop,17.4319921696537,78.1897559389472,MOKILA twd Shankarpalli
pzXN1H4j,Bulkapur,Bulkapur,17.444802512633,78.1587874889373,BULKAPUR twd Shankarpally
4XkSMGtG,Bhanur X Road,Bhanur X Road,17.453,78.144,BHANUR X Road twd Shankarpally
UCQMGasG,Shankarpally Bus Station,Shankarpally Bus Station,17.45583,78.13135,SHANKARPALLY Bus Station
0WxpWnzH,Bhanur X Road,Bhanur X Road,17.4533347883859,78.1441198277818,BHANUR X Road twd Mehdipatnam
hiYDONWZ,Bulkapur,Bulkapur,17.444894630995,78.1588867306709,BULKAPUR twd Mehdipatnam
GzMVZaMe,Mokila,Mokila,17.433466481256,78.1868728995323,MOKILA twd Gandipet
oTBBk3lA,Pilli Gundla Dontapalli,Pilli Gundla Dontapalli,17.4223140144901,78.2102429843117,PRODDUTUR X ROAD twd Mehdipatnam
lk3b2qDU,Indian Business School ( Ibs ),Indian Business School ( Ibs ),17.4187599379367,78.2177457959175,IBS twd Mehdipatnam
Io40sLXx,Dontapally,Dontapally,17.4186799529953,78.2239329821414,DONTHANPALLY X ROAD twd Mehdipatnam
ytvCxXFb,Kollur X Road,Kollur X Road,17.4177432815047,78.2507604383993,KOLLUR X ROAD twd Khanapur
ev6wgDXG,Janwada X Road,Janwada X Road,17.4128141525972,78.2668751490421,JANWADA X ROAD twd Narsing
oFhCBRcF,Miyakhan Gadda,Miyakhan Gadda,17.405,78.286,MIYAKHAN GADDA twd Khanapur
hYWlKusT,Khanapur,Khanapur,17.3972965174127,78.3019825817715,KHANAPUR twd Narsing
3Z4AuAHK,Cbit,Cbit,17.3936748829299,78.3202672041119,CBIT twd Mehdipatnam
SRmJE3Ta,Gandipet X Road,Gandipet X Road,17.386,78.331,GANDIPET X ROAD  twd Ramdev guda
bakKI0au,Grape Garden,Grape Garden,17.387,78.338,GRAPES GARDEN twd Langer House
EhRIzJx4,Kokapet X Rd,Kokapet X Rd,17.388022,78.341466,KOKAPET X ROAD twd Uppal
Pm5Rl4ZJ,Manchirevulla X Road,Manchirevulla X Road,17.3854635080172,78.355480581522,MANCHIREVULA X ROAD twd Mehdipatnam
1SdlIEjc,Hanuman Temple,Hanuman Temple,17.3802442663754,78.368377979902,HANUMAN TEMPLE twd Mehdipatnam
JXAl0tDW,Neknapur,Neknapur,17.379,78.37,NEKNAPUR twd Mehdiptnam
YEipNxZK,Taramathi,Taramathi,17.3768986343496,78.3789338177856,TARAMATHI twd Mehdipatnam
mFHd1TsQ,Ibrahim Bagh,Ibrahim Bagh,17.3768448816577,78.3818561167643,IBRAHIM BAGH twd Mehdiptnam
YLvpA2j1,Age Bar,Age Bar,17.3766631360547,78.3858586102885,AGE BAR twd Mehidipatnam
PlLbsGM1,Ramdev Guda,Ramdev Guda,17.375122190463,78.397021293432,RAMDEVGUDA twd Mehdiptnam
JfIOK0oA,Tippu Khan Bridge,Tippu Khan Bridge,17.3733584170628,78.4051135171454,TIPPU KHAN twd MP
uA8YdKKq,Manchirevulla X Road,Manchirevulla X Road,17.3853137697208,78.3556649838147,MANCHIREVULA X Road twd Gandipet
VXQBI5es,Narsinghi,Narsinghi,17.3856528804499,78.3544895052909,NARSINGI
pJbQlUdV,Hayathnagar Bus Depot,Hayathnagar Bus Depot,17.3265250538277,78.5932409790165,HAYATNAGAR-1 Bus Depot
2uOlQMbc,Hayathnagar Bus Depot,Hayathnagar Bus Depot,17.3301150304273,78.5943728684858,HAYATH Nagar Depot twd Hayath nagar
9TGZiwiy,Rtc Colony-Hyt,Rtc Colony-Hyt,17.328654,78.598786,RTC Colony twd Hayatnagar
BsjNAyiG,Hayathnagar Bs,Hayathnagar Bs,17.327319938482,78.6048933128708,HAYATHNAGAR Bus Station
qQ2eggZ4,Hayathnagar Bs,Hayathnagar Bs,17.32707761,78.60373244,HAYATHNAGAR twd LBNagar
jIGnqtq6,Rtc Colony Upl,Rtc Colony Upl,17.328056,78.599494,RTC COLONY twd DSNR
g3CVmJk7,Hayathnagar Bus Depot,Hayathnagar Bus Depot,17.3299921777276,78.5939329772356,HAYATH Nagar Depot twd Dilshuknagar
nib1nnsj,Bhagyalatha (Arunodaya),Bhagyalatha (Arunodaya),17.3323169413533,78.5891264677047,BHAGYALATHA twd Raithu bazar
SeOTAz0T,Shanthi Nagar-Vanastalipuram,Shanthi Nagar-Vanastalipuram,17.3282061281865,78.5875385978715,SHANTHI Nagar twd Raitu Bazar
3UkEBTxG,Sharada Nagar-Hayathnagar,Sharada Nagar-Hayathnagar,17.3281946225344,78.5850763308648,SHARADA NAGAR twd Raithu Bazar
9Ezr2Jwk,Subhadra-Kamala Nagar,Subhadra-Kamala Nagar,17.3288295776406,78.5834187047591,SUBHADRA Nagar twd Raitu Bazar
tSGCiQav,Kamala Nagar-Vanasthalipuram,Kamala Nagar-Vanasthalipuram,17.3298256380015,78.5790359981579,KAMALANAGAR twd Panama
IAGvk4V9,Raithu Bazar-Vsp,Raithu Bazar-Vsp,17.3304986956384,78.5751574884148,RAITHU Bazar twd Ganesh Temple Vanasthalipuram
kQF1TB5X,Vanasthalipuram Complex,Vanasthalipuram Complex,17.3307192035374,78.5729661588087,VANASTHALIPURAM Complex
3CpJuoZ6,Ganesh Temple-Vanastalipuram,Ganesh Temple-Vanastalipuram,17.3312415627581,78.5691869252743,GANESH Temple twd LB Nagar
JMhpzU6M,Panama Godowns,Panama Godowns,17.3379997005392,17.3379997005392,PANAMA Godown twd Dilshukanagar
MjEKXkAz,Chintalkunta Bus Stop,Chintalkunta Bus Stop,17.340501,78.563096,CHINTALKUNTA twd Dilshuknagar
lyF23GGb,Chintalkunta Checkpost,Chintalkunta Checkpost,17.3426277067675,78.5564276074592,CHINTALKUNTA CHECK POST twd Dilshuknagar
jNMgv2Al,Lb Nagar,Lb Nagar,17.3470975873752,78.5512214933717,LB NAGAR  X Road twd JBS
Ap1EukzU,Kamineni Hospital,Kamineni Hospital,17.3533656317548,78.5555738449488,KAMINENI Hospital twd JBS
buDaArKj,Rajeev Gandhi Nagar,Rajeev Gandhi Nagar,17.3599187220688,78.5575877147417,RAJEEV GANDHI NAGAR twd JBS
qPtExEEi,Alkapuri X Road,Alkapuri X Road,17.365287,78.556949,ALKAPURI X Roads twd JBS
BCMwFXGv,Snehapuri Colony,Snehapuri Colony,17.3691064112559,78.5572162315471,SNEHAPURI twd Secunderabad
AnLTMfwA,Nagole X Rds,Nagole X Rds,17.3767810792273,78.5577533319177,NAGOLE X Road twd Uppal
igXYuJJL,Nagole Metro Station,Nagole Metro Station,17.3905264866278,78.5587478043404,NAGOLE Metro Station twd Uppal
qbtDyPmY,Uppal X Road,Uppal X Road,17.4020398586715,78.5595762357115,UPPAL X ROAD  twd Jagathgirigutta
HRc9q9cv,Survey Of India,Survey Of India,17.405683,78.555518,SURVEY OF INDIA twd Secunderabad
h14pP8Q5,Ngri,Ngri,17.4154051662213,78.5453817445992,NGRI twd JBS
B9wleFxF,Railway Degree Collge,Railway Degree Collge,17.4286299145881,78.5273122787475,RAILWAY DEGREE COLLEGE twd Secunderabad rly station
fDQ48G2W,Mettuguda,Mettuguda,17.434189,78.520796,METTUGUDA twd JBS
gVRyRzSN,Jbs,Jbs,17.4476122175084,78.4975797098984,Jublee Bus Station
ajXH07Oj,Ngri,Ngri,17.4154662609906,78.5457455222495,NGRI twd Uppal
SbVE8Ev9,Survey Of India,Survey Of India,17.406015994449,78.5556103944187,SURVEY OF INDIA  twd Uppal
bHfuhRVs,Uppal X Roads,Uppal X Roads,17.3999353441785,78.5602819919586,UPPAL X Roads twd RGIA
5YoLyTS1,Nagole Metro Station,Nagole Metro Station,17.3905571984108,78.5589248073744,NAGOLE Metro Station twd Lb Nagar
sJVjEk53,Nagole X Road,Nagole X Road,17.3762215709702,78.5580436887308,NAGOLE X Road twd RGIA
UsvPMDtj,Snehapuri Colony,Snehapuri Colony,17.3688363748086,78.5573905846173,SNEHAPURI COLONY twd LB Nagar
j5uk5YHU,Alkapuri X Road,Alkapuri X Road,17.3640224417629,78.5573127975608,ALKAPURI X Road twd LBNagar
C7MKjOpe,Rajeev Gandhi Nagar,Rajeev Gandhi Nagar,17.3596592052439,78.5578143596649,RAJEEV GANDHI NAGAR twd LB Nagar
KEmdPCGs,Kamineni Hospital,Kamineni Hospital,17.3524400960622,78.5556759154176,KAMINENI Hospital twd Lb Nagar
3GrSvtyq,Lb Nagar,Lb Nagar,17.3465420724352,78.5514588770728,LB NAGAR X Road  twd Hayathnagar
pXxlBybY,Chintalkunta Checkpost,Chintalkunta Checkpost,17.342,78.558,CHINTALKUNTA CHECK POST twd Choutuppal
HqApOlBt,Chintalkunta Bus Stop,Chintalkunta Bus Stop,17.3408838175952,78.5620978486596,CHINTALKUNTA twd Hayatnagar
nsLzkHjZ,Panama Godowns,Panama Godowns,17.3384029534039,78.568639755249,PANAMA Godown twd Hayathnagar
2vgzCngU,Ganesh Temple-Vanasthalipuram,Ganesh Temple-Vanasthalipuram,17.3318022966686,78.5692486174845,GANESH TEMPLE twd Hayathnagar
AVqMsMvj,Vanasthalipuram,Vanasthalipuram,17.3313606228412,78.572897426784,VANASTHALI Puram Complex twd Hayathnagar
2NKuNLpA,Raithu Bazar-Vsp,Raithu Bazar-Vsp,17.3306053070048,78.5756242213434,RAITU Bazar twd Kamalanagar
nkt9SkEX,Kamala Nagar-Vanasthalipuram,Kamala Nagar-Vanasthalipuram,17.329893438449,78.578940779543,KAMALANAGAR twd Hayathnagar
hnG4z3o9,Subhadra-Kamala Nagar,Subhadra-Kamala Nagar,17.3289129220628,78.5833410069496,SUBHADRA Nagar twd Shanthi Nagar
NiwiEx9q,Sharada Nagar-Hayathnagar,Sharada Nagar-Hayathnagar,17.3294556456237,78.5856315493583,SHARADHA Nagar twd Bhagyalatha
jhd9QeGO,Shanthi Nagar-Vanastalipuram,Shanthi Nagar-Vanastalipuram,17.3293186677125,78.587535915363,SHANTHI Nagar twd Bagyalatha
DQGu7xHQ,Bhagyalatha,Bhagyalatha,17.332940228836,78.5892717767686,BHAGYALATHA twd Haythnagar
CFHNbG2J,Chilkur Balaji Temple,Chilkur Balaji Temple,17.3571052314241,78.2999092340469,CHILKUR BALAJI Temple Bus Stop
L8kbKj1j,Residential School-Chilkur Balaji,Residential School-Chilkur Balaji,17.3477863333148,78.2999843358993,RESIDENTIAL School twd Mehdipatnam
fT0d50lx,Himayathnagar Village,Himayathnagar Village,17.3425982736606,78.3089503281479,HIMAYAT Nagar Village twd Mehdipatnam
hsnDsySD,Care Hospital-Banjara Hills,Care Hospital-Banjara Hills,17.4136267317493,78.4504334634602,CARE Hospital twd Secunderabad
DlkTzhBT,Indra Gandhi Statue-Secunderabad,Indra Gandhi Statue-Secunderabad,17.437418,78.504398,IG STATUE twd SEC BAD
hAc9AQA9,Mehdipatnam,Mehdipatnam,17.3939153245566,78.442412312793,MEHDIPATNAM twd Tallagadda
HdUjSU7J,Nfc North Gate,Nfc North Gate,17.4570743399049,78.5789474844932,NFC NORTH GATE twd ECIL
PRepdcnz,Ecil X Roads,Ecil X Roads,17.4725334178467,78.570063162346,ECIL Bus terminal
65IwqrLo,Mahaveer Hospital,Mahaveer Hospital,17.4029094212,78.4582774841,MAHAVIR Hospital twd Koti
SBmkG9NJ,Bjr College,Bjr College,17.4048570944751,78.4610563497947,BJR College twd NIMS
Gm0WIrE8,Lakdikapool,Lakdikapool,17.4061828843,78.4631116672,LAKDIKAPOOL twd Dilsukhnagar
Dg7VAzf3,Telephone Bhavan,Telephone Bhavan,17.4071861215,78.4661719875,TELEPHONE Bhavan
ZNUKsMix,Secretariat Lic Building,Secretariat Lic Building,17.408117,78.471823,SECRETARIAT twd JBS
NYWivGae,Tank Bund,Tank Bund,17.422315,78.485023,MIDDLE TANK BUND twd JBS
iSB14TRl,Boats Club,Boats Club,17.4264354917431,78.4866365830797,BOATS Club twd JBS
v8JMo7Nn,Bible House,Bible House,17.4306413572339,78.4922450951348,BIBLE House twd Secunderabad
noFGCQkJ,Bata,Bata,17.4360049911766,78.4937041938012,BATA twd Secunderabad
xgJ1CUA5,Patny Taj Tristar,Patny Taj Tristar,17.4405291830956,78.4950453042984,TAJ Tristar Patny twd JBS
iBWNwmWj,Clock Tower Secunderabad,Clock Tower Secunderabad,17.4415168635684,78.4983979845083,CLOCK Tower twd Secunderabad
AbZzpwXc,Sangeeth,Sangeeth,17.4411228403116,78.5033601529844,SANGEETH twd Secunderabad
UlSL8FAc,Clock Tower Secunderabad,Clock Tower Secunderabad,17.4405957478608,78.4970569778625,CLOCK Tower twd Patny
9zSxAeIG,Patny Taj Tristar,Patny Taj Tristar,17.4399842151587,78.495337665081,TAJ Tristar Patny twd TankBund
HJTDI9P3,Bata,Bata,17.4361175891792,78.4938570857048,BATA twd Tank Bund
Ci8Yl6FR,Bible House,Bible House,17.4307590239036,78.4924649817205,BIBLE House twd CBS
rzCMv7kP,Boats Club,Boats Club,17.426413746913,78.4867412107602,BOATS Club twd CBS
UnvVAGqJ,Tankbund,Tankbund,17.422205,78.48515,TANKBUND twd CBS
WPJcfJaq,Secretariat Lic Building,Secretariat Lic Building,17.40765263199,78.4714147076009,SECRETARIAT twd RGIA
nV1IXc4T,Birla Mandir,Birla Mandir,17.4059180142,78.4674064815,RBI Birlamandir twd CBS
9MesXC3c,Mahaveer Hospital,Mahaveer Hospital,17.4027609783,78.4586075988,MAHAVIR HOSPITAL twd Mehdipatnam
zb4YFQB5,Himayathnagar X Road,Himayathnagar X Road,17.33931347,78.31119899,HIMAYATH Nagar X Road twd Chilkur
idtsF5sQ,Himayathnagar Village,Himayathnagar Village,17.342901421144,78.3082163492706,HIMAYAT Nagar twd Balaji Temple
lFhBU2uw,Residential School-Chilkur Balaji,Residential School-Chilkur Balaji,17.3476583231755,78.299925327301,RESIDENTIAL School twd Balaji temple
UBeedL9T,Gitam University,Gitam University,17.5498761143066,78.1641904250029,GITAM UNIVERSITY
eOVTjUWY,Rudhraram,Rudhraram,17.5638035595563,78.1667164340615,RUDRARAM twd Patancheruvu
VThbv9DF,Lakdaram,Lakdaram,17.55670952,78.18506375,LAKDARAM twd Hyderabad
eHbnVL9F,Isnapur,Isnapur,17.5471729935757,78.2125073424965,ISNAPUR twd MGBS
3McYaDDT,Muttangi,Muttangi,17.5427159207682,78.2266661524772,MUTHANGI twd Patancheruvu
vGbfDTyv,Pc Tanda,Pc Tanda,17.5371175408544,78.2430303091949,PC Tanda twd Koti
F3aXWUAz,Navapan Industries,Navapan Industries,17.53226294,78.25435426,NAVAPAN Industries twd JBS
SQRaHPms,Patancheruvu,Patancheruvu,17.5295419780095,78.2641071137562,PATANCHERUVU twd Koti
FMXqLNtM,J.P Colony,J.P Colony,17.5286758468744,78.2672027125954,J P COLONY BUS STOP PATANCHERU  twd JBS
8NDo3n3K,Icrisat,Icrisat,17.5183441688588,78.2794387320302,ICRISAT twd Lingampally
HBEsChQJ,Rc Puram,Rc Puram,17.5138064754564,78.2883543017682,RC PURAM Bus Stop twd Koti
uszXY4af,Beeramguda Kaman,Beeramguda Kaman,17.508994,78.300791,BEERAMGUDA KAMAN twd Koti
88qmN6Io,Ashok Nagar - Bhel,Ashok Nagar - Bhel,17.504589,78.308468,ASHOK Nagar twd Koti
KdJtfeXu,Lingampally,Lingampally,17.4940842408934,78.3158200993873,BHEL-LINGAMPALLY
WnogEKf8,Lingampally Railway Station,Lingampally Railway Station,17.4800420686704,78.3153319773373,LINGAMPALLY Railway Station twd Mehdipatnam
4WOwv4iE,Alind,Alind,17.4766752450096,78.3247330784797,ALIND Doyene Colony twd Mehdipatnam
lohzZAZ2,Hcu Main Gate,Hcu Main Gate,17.468233,78.331306,HCU Depot Gate twd Mehdipatnam
Mzyf0mUV,Hcu Main Gate,Hcu Main Gate,17.462201924859,78.3355021905873,HCU MAIN GATE twd Mehdipatnam
X2pdhYhb,Masjid Banda,Masjid Banda,17.4594308426531,78.338016717216,MASJID Banda twd Mehdipatnam
fEiTwduh,Hcu Small Gate,Hcu Small Gate,17.456496,78.340242,HCU Small Gate twd Mehdipatnam
XvrhNaV0,Gachibowli Stadium,Gachibowli Stadium,17.45075,78.3468,GACHIBWOLI Stadium twd Mehdipatnam
n8YbCvTO,Iiit,Iiit,17.4444415069752,78.3536848225163,IIIT twd Mehdipatnam
CTLSoPoL,Indira Nagar- Gachibowli,Indira Nagar- Gachibowli,17.440605937791,78.3609429014555,INDIRA Nagar twd Mehdipatnam
WcY4kntl,Gachibowli,Gachibowli,17.4383272428414,78.3645652234554,GACHIBOWLI X ROAD twd Mehdipatnam
b8EKh3kU,Telecom Nagar Hyd,Telecom Nagar Hyd,17.4355955734748,78.3677530262161,TELECOM NAGAR twd Mehdipatnam
RIQHN9r7,Bio Diversity,Bio Diversity,17.4291572246488,78.3750432480949,BIO DIVERSITY COMPLEX twd RGIA
5TZMCxdr,Khajaguda X Rd,Khajaguda X Rd,17.4223088999908,78.3829693355014,KHAJAGUDA X Road twd Mehdipatnam
PUvsyqi8,Darga,Darga,17.4121744484932,78.395873327474,DARGA twd Mehdipatnam
FWbv1Cmq,Shaikpet Nala,Shaikpet Nala,17.4072424974488,78.4024259448051,SHAIKPETNALA twd Mehdipatnam
Z9AN7eoD,Brindhavan Colony,Brindhavan Colony,17.4035080135269,78.4092719480395,BRINDAVAN Colony twd Mehdipatnam
5UVBX5dh,Toli Chowki,Toli Chowki,17.3992442925762,78.4155178152593,TOLICHOWKI twd Mp
22iIia8u,Nanal Nagar,Nanal Nagar,17.3962,78.427,NANAL Nagar twd Mehidipatnam
aoPnUaKX,Chilkur Village,Chilkur Village,17.3479297020817,78.2888880372047,CHILKUR VILLAGE twd Reddy pally
iUuodAW7,Appojiguda X Road,Appojiguda X Road,17.3606562037996,78.2732238838611,APPOJIGUDA X ROAD twd Reddy Pally
5F8iepNn,Chandanagar-Moinabad,Chandanagar-Moinabad,17.3667295539635,78.2589116336718,CHANDANAGAR X ROAD twd Reddy Pally
xetyljvm,Chandanagar-Moinabad,Chandanagar-Moinabad,17.3738574952229,78.2613282188131,CHANDA NAGAR Village
1wiLVWe6,Reddipalle-Moinabad,Reddipalle-Moinabad,17.3731075761874,78.2462047040462,REDDY PALLY twd Veerannapet
H9uufHGx,Chinna Mangalaram,Chinna Mangalaram,17.3907210238526,78.2270173001282,CHINNAMANGALARAM Village
amXWe4hA,Reddipalle-Moinabad,Reddipalle-Moinabad,17.3731165046174,78.2462315261363,REDDY PALLY twd Chandanagar
NIHDGDPX,Chandanagar-Moinabad,Chandanagar-Moinabad,17.3667128362882,78.2590672373771,CHANDANAGAR X ROAD twd Chilkur
lkHmcJv1,Appojiguda,Appojiguda,17.3717328988695,78.2755266160991,APPOJIGUDA Village
OsSnpobb,Appojiguda X Road,Appojiguda X Road,17.3607252866651,78.2732077944164,APPOJIGUDA X ROAD twd Chilkur
KFvPMe35,Chilkur Village,Chilkur Village,17.3479553562249,78.2888786528941,CHILKUR VILLAGE twd Himayath nagar
LbLMZ7ql,Chilkur Quarters Twd Azizs Nagar,Chilkur Quarters Twd Azizs Nagar,17.3439638667429,78.2953722776283,CHILKUR QUARTERS twd Azizs nagar
qNee7vZl,Cbit Hostel Twd Mehdipatnam,Cbit Hostel Twd Mehdipatnam,17.3962752935478,78.3115983037954,CBIT HOSTEL twd Mehdipatnam
9ahqTeb2,Womens College Koti,Womens College Koti,17.3849503004599,78.4884792567614,KOTI Womens College
tRKrXYoZ,Womens College Koti,Womens College Koti,17.3848082571423,78.4876209576359,WOMENS COLLEGE twd Koti
PdS5x1iC,Koti,Koti,17.3830984222874,78.4828198363385,KOTI Medical College
QjPFvUK8,Abids Gpo,Abids Gpo,17.387567552846,78.4761732780757,ABIDS GPO twd Nampally
0JxeENcx,Kukatpally,Kukatpally,17.483853963508,78.41241718136,KUKATPALLY twd Patancheru
DFla4Krg,Kphb,Kphb,17.494062,78.400453,KPHB Metro Station twd Patancheru
5JNKM30n,Jntu,Jntu,17.496261,78.39441,JNTU X ROAD twd Patancheru
lXQ2Ri6E,Nizampet X Rds,Nizampet X Rds,17.498276,78.390314,NIZAMPET X ROAD twd Patancheru
SX8Vkcd2,Hydernagar,Hydernagar,17.499185,78.383519,HYDERNAGAR  twd Patancheru
QaDZj4Nl,Miyapur Metro Station,Miyapur Metro Station,17.496265,78.370945,MIYAPUR Metro Station twd Patancheru
YAi2DjcQ,Miyapur X Road,Miyapur X Road,17.4964809673082,78.3626092759049,MIYAPUR X Road twd Patancheru
VocKUPzH,Miyapur,Miyapur,17.495772,78.357949,MIYAPUR twd Patancheru
rmYfcZ5Z,Allwyn X Road,Allwyn X Road,17.4939180409565,78.3500665416738,ALLWYN X RD twd Patancheruvu
Y9F02Tzl,Madeenaguda,Madeenaguda,17.494912,78.340601,MADEENAGUDA twd Patancheru
rfBAovF9,Gangaram,Gangaram,17.4950921682438,78.3327071191635,GANGARAM twd Patancheru
n9wOSYw8,Chandanagar,Chandanagar,17.494893,78.323144,CHANDANAGAR twd Patancheru
NvZJ6Bq3,Lingampally,Lingampally,17.4948491868717,78.316890299404,LINGAMPALLY
fj8FVMOk,Jyothi Nagar-Bhel,Jyothi Nagar-Bhel,17.501464,78.312041,JYOTHI NGR  BHEL twd Patancheruvu
dRMDe5T6,Ashok Nagar - Bhel,Ashok Nagar - Bhel,17.504123,78.308781,ASHOK NAGAR BHEL twd Patancheruvu
Nw9MwrDH,Beeramguda Kaman,Beeramguda Kaman,17.50889,78.300277,BEERAMGUDA KAMAN twd Patancheru
1o698GP3,Rc Puram,Rc Puram,17.513617,78.287795,RC PURAM twd Patancheruvu
II7bciLP,Icrisat,Icrisat,17.518553830327,78.2787145288346,ICRISAT
enXMW3fY,Patancheruvu,Patancheruvu,17.5290253139952,78.2642841474539,PATANCHERUVU
6PCwr68X,Allwyn,Allwyn,17.5248984841061,78.2717292847092,ALWYN twd Miyapur
WV9IcDKE,Icrisat,Icrisat,17.5183441688588,78.2794387320302,ICRISAT
7GAFuon5,Jyothi Nagar-Bhel,Jyothi Nagar-Bhel,17.50207,78.312112,JYOTHI Nagar Bus Stop twd Lingampally
kduNCBUS,Lingampally,Lingampally,17.4952073347695,78.317260102941,LINGAMPALLY twd Uppal
p7cz7tF2,Chandanagar,Chandanagar,17.4951612775954,78.322976231575,CHANDANAGAR twd  Uppal
Md3ixzA9,Gangaram,Gangaram,17.4951740682765,78.330899477005,GANGARAM twd  Uppal
B4DT0HD4,Madeenaguda,Madeenaguda,17.49539,78.340708,MADINAGUDA Bus Stop twd Koti
THhHj4EN,Deepthi Sri Nagar,Deepthi Sri Nagar,17.495068,78.345604,DEEPTHISRINAGAR  twd Koti
hAUDjfku,Allwyn X Road,Allwyn X Road,17.4944114182666,78.3522099578215,ALLWYN X Road twd Koti
NZVBKXVQ,Miyapur,Miyapur,17.4966935951901,78.3607712388819,MIYAPUR twd Uppal
O2WcwZw9,Miyapur X Road,Miyapur X Road,17.4968376514425,78.363583650579,MIYAPUR X Road twd RGIA
5tRdKNc0,Miyapur Metro Station,Miyapur Metro Station,17.496817,78.371098,MIYAPUR Metro Station twd Uppal
D0CKSBuN,Hydernagar,Hydernagar,17.49954,78.383844,HYDERNAGAR twd Uppal
BcrTembT,Nizampet X Rds,Nizampet X Rds,17.498657,78.390476,NIZAMPET X ROAD  twd JNTU
Yjlj2QcH,Jntu,Jntu,17.4967243164815,78.3944463706495,JNTU X RD twd Uppal
jKdphPgN,Kphb,Kphb,17.4945575242355,78.4008099307912,KPHB twd MGBS
6ieMkQHe,Kukatpally,Kukatpally,17.4837158155045,78.4129241088958,KUKATPALLY twd Koti
ag157Sbi,Moosapet,Moosapet,17.4727070918128,78.4256511936536,MOOSAPET twd Koti
P7COoExj,Bharath Nagar,Bharath Nagar,17.4671296630644,78.4290361667966,BHARATH Nagar twd Koti
LIzlAAM2,Erragadda,Erragadda,17.4527856758918,78.4357899588463,ERRAGADDA twd MGBS
UQN34MTt,Esi Hospital,Esi Hospital,17.446138,78.439221,ESI Hospital twd Koti
MTUln49h,Sr Nagar,Sr Nagar,17.440269,78.442599,SR NAGAR twd Uppal
4SATTACn,Maithrivanam,Maithrivanam,17.4378424921511,78.4434931628764,MAITRIVANAM twd Koti
E7s4NexM,Ameerpet,Ameerpet,17.431749,78.447983,AMEERPET twd Koti
UefVeqR5,Panjaguta Metro Station,Panjaguta Metro Station,17.429261,78.450954,PUNJAGUTA Metro Station twd Koti
ayYyCeX1,Nims Hospital,Nims Hospital,17.4231637788918,78.4545278318342,NIMS Hospital twd Koti
17u3Dlmo,Irram Manzil,Irram Manzil,17.4205278888891,78.4561856383438,IRRUM MANZIL twd Koti
kOM90j5y,Somajiguda,Somajiguda,17.4159262451386,78.4578323182703,SOMAJIGUDA twd Koti
F7NYzY8g,Khairatabad,Khairatabad,17.4128396608948,78.4605681944127,KHAIRATABAD twd Koti
1EVLfRYi,Chintal Basthi,Chintal Basthi,17.408954704223,78.460584290468,SHADAN COLLEGE twd Koti
LUl5q810,Assembly,Assembly,17.4022439861885,78.4685611452085,ASSEMBLY twd Koti
FQ28CymB,Abids Grammar School,Abids Grammar School,17.3933318257546,78.476249708728,ABIDS Grammar School twd Koti
8VIiwiTV,Koti Bank Street,Koti Bank Street,17.3854273566073,78.4819078498332,KOTI BANK STRRET twd LB Nagar
1XFVrKv3,Bhagyalatha,Bhagyalatha,17.3326600370083,78.5887992382049,BHAGYALATHA twd Dilshuk nagar
PAAUi1nF,High Court Colony-Dsnr,High Court Colony-Dsnr,17.334888,78.5848,HIGH COURT COLONY twd DSNR
EqUJBGCm,Auto Nagar-Sushma,Auto Nagar-Sushma,17.336228,78.576683,AUTONAGAR twd Dilshuknagar
4hKYSm5a,Sushma-Autonagar,Sushma-Autonagar,17.336679,78.573089,SUSHMA TALKIES twd LB Nagar
ctHg6lcm,Lb Nagar,Lb Nagar,17.3469873366197,78.5501271385654,LB NAGAR X Road twd Dilsuknagar
fXQQH2MZ,Lb Nagar Metro Station,Lb Nagar Metro Station,17.3501149525109,78.5475092285759,LB Nagar Metro Station twd MGBS
H34GqhjL,Ntr Nagar Lb Nagar,Ntr Nagar Lb Nagar,17.3557181903671,78.54530411806,NTR NAGAR twd Dilsuknagar
j03fTpZX,Ashtalakshmi Temple-Kothapet,Ashtalakshmi Temple-Kothapet,17.362788,78.543466,DWARAKA Nagar Ashtalakshmi Temple twd Dilshuknagar
URqOZwMM,Kothapet X Road,Kothapet X Road,17.3671302047088,78.540404143283,KOTHAPET twd MGBS
85BLnSI1,Kothapet-Fruit Market,Kothapet-Fruit Market,17.3682514450115,78.5347473621368,FRUIT MARKET twd MGBS
nCGtoaLy,Chaithanyapuri,Chaithanyapuri,17.3683129496413,78.5313431392741,CHAITANYAPURI twd MGBS
4URl0L5Y,Dilsukhnagar,Dilsukhnagar,17.3684429476971,78.5231852300852,DILSUKHNAGAR twd MGBS
CWHLIfmF,Moosarambhagh,Moosarambhagh,17.3696030912484,78.5157787711054,MOOSARAMBAGH twd Koti
sZoLwKhA,Super Bazar Malakpet,Super Bazar Malakpet,17.371934,78.50992,SUPER BAZAR twd Koti
eZaYndv0,Chermas Malakpet,Chermas Malakpet,17.373002587618,78.5052967071533,MALAKPET CHERMAS twd Koti
lvN5ZKax,Nalgonda X Roads,Nalgonda X Roads,17.3741802708231,78.4997124246527,NALGONDA X ROADS twd Koti
puLeqHhl,Chaderghat,Chaderghat,17.3772160516947,78.4930202364921,CHADARGHAT twd Koti
bv5t1O6B,Chadarghat,Chadarghat,17.377081,78.49577,CHADARGHAT twd Dilshuknagar
fFjh9l4f,Super Bazar Bus Stop,Super Bazar Bus Stop,17.3724598986845,78.5091124847531,SUPER Bazar twd Dilsukhnagar
5lBRTe5B,Dilsukhnagar Bs,Dilsukhnagar Bs,17.3688043819962,78.5238387022153,DILSUKHNAGAR Bus Station
ygPilzwX,Ashtalakshmi Temple-Kothapet,Ashtalakshmi Temple-Kothapet,17.362645,78.543864,DWARAKA Nagar Ashtalakshmi Temple twd Lbnagar
VfWv1xKO,Laxmireddy Palem,Laxmireddy Palem,17.3207661276856,78.626633479152,LAXMA REDDY PALEM twd RFC
qdyOuVOq,Pedda Amberpet,Pedda Amberpet,17.3214319909812,78.6393264168249,PEDDA AMBERPET twd RFC
5Jsa2cry,Outer Ring Road,Outer Ring Road,17.3175986217581,78.661840280674,ORR twd RFC
vMvkw0ys,Abdullapurmet,Abdullapurmet,17.310007,78.686613,ABDULLAPURMET twd Nalgonda
OhviA7kV,Inamguda,Inamguda,17.306523,78.705618,INAMGUDA twd Nalgonda
0DezTsQi,Jafferguda X Road,Jafferguda X Road,17.3069133219053,78.7155309377061,JAFFERGUDA X ROAD twd CTPL
1DxNpC0z,Bata Singaram,Bata Singaram,17.3056575377595,78.7288367003202,BATASINGARAM twd Suryapet
mMoDIF8Z,Kothagudem,Kothagudem,17.3007589969332,78.7393836166736,KOTHAGUDEM twd Choutuppal
iFO6HFif,Dandumailaram X Road,Dandumailaram X Road,17.2925416679072,78.7539321184158,DANDUMAILARAM X Road twd Choutuppal
Bx1F0lE0,Toopranpet,Toopranpet,17.2916273800597,78.7608924520905,TOOPRANPET twd Choutuppal
23CIGReG,Andol Maisamma,Andol Maisamma,17.2820489700787,78.7830501207823,ANDHOL MAISAMMA twd CTPL
IdFkmzvP,Malkapur,Malkapur,17.280343,78.796394,MALKAPUR twd Nalgonda
hEKGr0me,Kaithapur,Kaithapur,17.2675754010915,78.8271671647051,KAITHAPUR twd Choutuppal
6Y38y3x3,Koyyalagudem,Koyyalagudem,17.2609186506978,78.8439524041697,KOYYALAGUDEM twd Choutuppal
2pzMp4DB,Dharmojigudem,Dharmojigudem,17.2565641637626,78.8777777558594,DHARMOJIGUDEM twd CTPL
W3eaikE1,Choutuppal Bs,Choutuppal Bs,17.254412533861,78.8944798707962,CHOUTUPPAL Bus Stand
iktEJq83,Dharmojigudem,Dharmojigudem,17.2564259154025,78.8777000394818,DHARMOJIGUDEM twd MGBS
dUQ79Lat,Koyyalagudem,Koyyalagudem,17.2604267533691,78.8439953327178,KOYYALAGUDEM twd Mgbs
nzBeb6JC,Kaithapur,Kaithapur,17.2676300500789,78.8266226649284,KAITHAPUR twd MGBS
TOFkPo9B,Malkapur,Malkapur,17.280127,78.7965,MALKAPUR twd Hyderabad
12pJETKr,Andol Maisamma,Andol Maisamma,17.2824127178787,78.7822079574652,ANDHOL MAISAMMA twd MGBS
GIbzlNRL,Toopranpet,Toopranpet,17.291326,78.76186,TOOPRANPET twd Hyderabad
hvR3himq,Dandumailaram X Road,Dandumailaram X Road,17.2922868504301,78.7541761782769,DANDUMAILARAM X ROAD twd Hayathnagar
vtACzCrV,Kothagudem,Kothagudem,17.3005950044002,78.739249428387,KOTHAGUDEM twd LB Nagar
EhPooyEv,Bata Singaram,Bata Singaram,17.3052670169839,78.7292400375008,BATASINGARAM twd L B Nagar
ANNOm3sh,Jafferguda X Road,Jafferguda X Road,17.3065424879152,78.7155924749532,JAFFERGUDA X ROAD twd MGBS
u5FObTEK,Inamguda,Inamguda,17.306185,78.705423,INAMGUDA twd Hyderabad
bYNoEFSN,Abdullapurmet,Abdullapurmet,17.30977,78.686607,ABDULLAPURMET twd Koti
UxlFgM6j,Outer Ring Road,Outer Ring Road,17.3172867935157,78.662109152387,ORR twd JBS
giMY0XoZ,Pedda Amberpet,Pedda Amberpet,17.3205492,78.64124112,PEDDA Amberpet twd MGBS
lwT4qIh2,Laxmireddy Palem,Laxmireddy Palem,17.3205565388484,78.6265720024474,LAXMA Reddy Palem twd Jbs
MhuyshjB,Dilsukhnagar,Dilsukhnagar,17.3686200725547,78.5236644825776,DILSUKHNAGAR twd Kothapet
lHmEewAT,Chaithanyapuri,Chaithanyapuri,17.3684817771007,78.5326123252406,CHAITANYAPURI  twd Hayatnagar
h9voTH7m,Kothapet-Fruit Market,Kothapet-Fruit Market,17.3685176760893,78.5350263118744,FRUIT MARKET twd Hayatnagar
AqZ2QeCT,Kothapet X Road,Kothapet X Road,17.36683421,78.54130168,KOTHAPET twd Hayatnagar
QHrSIczA,Ntr Nagar Lb Nagar,Ntr Nagar Lb Nagar,17.3559666460859,78.5456078099895,NTR NAGAR twd Hayatnagar
EULzHBDa,Lb Nagar Metro Station,Lb Nagar Metro Station,17.3497167163347,78.5481692175075,LB NAGAR METRO STN twd Hayatnagar
8LFMgL8w,Sushma-Autonagar,Sushma-Autonagar,17.336986,78.573452,SUSHMA Theatre Vanasthalipuram twd Hayath nagar
XdTavtD9,Autonagar Hayatnagar,Autonagar Hayatnagar,17.336495,78.576728,AUTONAGAR twd Hayath nagar
p8GTujGn,High Court Colony-Dsnr,High Court Colony-Dsnr,17.335042,78.585203,HIGH COURT COLONY twd Hayatnagar
YUE38iid,Rajendra Nagar Bus Depot,Rajendra Nagar Bus Depot,17.3347442013132,78.4093433618545,RAJENDRA Nagar Bus Depot
vqEeoNzr,Nppti,Nppti,17.3370254585382,78.4117895364761,NPPTI twd Dairy Farm
D5gSvozj,Dairy Farm,Dairy Farm,17.345415,78.416081,DAIRY Farm Upperpally twd Uppal
ChmUll1G,Ws Colony,Ws Colony,17.3325569781505,78.426885344088,WEAKER SECTION twd Uppal
ClOYL7ib,Shivarampally X Road,Shivarampally X Road,17.3266662961617,78.4257102254793,SHIVRAMPALLY twd Aramghar
BMX7A8jV,Aramghar,Aramghar,17.3212478732811,78.4316030680496,ARAMGHAR twd RGIA
D6y4m7A5,Ag College,Ag College,17.3137973031086,78.4247664851953,AG College twd Shamshabad
pWgyJcJa,Gagan Pahad,Gagan Pahad,17.2928908969124,78.417686383595,GAGANPAHAD twd Shamshabad
WZDC0taq,Sathamrai,Sathamrai,17.2745185707741,78.4011790016069,SATHAMRAI twd Shamshabad
g7ENJRdr,Shamshabad,Shamshabad,17.264461066455,78.3913376954827,SHAMSHABAD Vegetable Market twd Raichur
ZdNjgXdW,Shamshabad,Shamshabad,17.2620456513998,78.3882424235343,SHAMSHABAD twd RGIA
U6BONCXR,Shamshabad,Shamshabad,17.262309,78.387974,SHAMSHABAD twd MGBS
feffDLXG,Rallaguda,Rallaguda,17.2650001978153,78.3741058394178,RALLAGUDA twd Chevella
IIBnyjHU,Doddi,Doddi,17.2639743580431,78.3686810362125,DODDI twd Chevella
S3eNNtFz,Oasis School Of Excellence,Oasis School Of Excellence,17.2621429844156,78.352708518505,OASIS SCHOOL OF EXCELLENCE twd Chevella
g9pPRtYl,Narkhoda,Narkhoda,17.258,78.335,NARKHODA twd Chevella
3EYcsiTP,Sultanpally X Roads,Sultanpally X Roads,17.2562465600622,78.3194410800934,SULTANPALLY X ROADS twd Chevella
l9hdl9i4,Vardhaman Clg,Vardhaman Clg,17.254,78.308,VARDHAMAN COLLEGE twd Chevella
juFEYmlr,Kacharam,Kacharam,17.252,78.295,KACHARAM twd Chevella
E44j7zL3,Rayannaguda,Rayannaguda,17.252,78.29,RAYANNAGUDA twd Chevella
pixGJcLd,Malkaram,Malkaram,17.251,78.276,MALKARAM twd Chevella
Kn36fka6,Kavelliguda,Kavelliguda,17.2474348689513,78.256934876854,KAVELIGUDA twd Hythabad
49GCBJ9p,Venkatapur-Moinabad,Venkatapur-Moinabad,17.2470249630663,78.2537861163067,VENKATAPUR X RAOD twd Chevella
tfVsWFTI,Ramanujapur-Shamshabad,Ramanujapur-Shamshabad,17.2334632088911,78.2469624280929,RAMANJAPUR twd Nagarguda
UXwEtF8z,Maddur,Maddur,17.217,78.226,MADDUR twd Chevella
FDhEB62C,Hayathabad,Hayathabad,17.225,78.199,HAYATHABAD twd Chevella
osgFW4WG,Chandanvelly,Chandanvelly,17.229,78.17,CHANDANVELLY twd Chevella
RTmvIZk6,Rudraram-Shabad,Rudraram-Shabad,17.2353643424144,78.1579399108886,RUDRARAM twd Chevella
kMPUBsmI,Nagarguda,Nagarguda,17.2340077629554,78.1362850964069,NAGARGUDA twd Chevella
xiDcOv0f,Allwada,Allwada,17.2547135100818,78.136433288455,ALLWADA twd Chevella
mNC8BEe7,Kamena,Kamena,17.299,78.146,PAMENA twd Chevella
36OjrsAe,Malreddyguda,Malreddyguda,17.3040554231095,78.1460979789561,MALREDDYGUDA twd Chevella
SA2zPWiO,Moosarambhagh,Moosarambhagh,17.3711242901418,78.5147541524288,MOOSARAMBAGH twd Uppal
VG2Fqlqg,Sripuram Colony,Sripuram Colony,17.3766370298801,78.514668306653,SRIPURAM Colony twd Amberpet
sefI86gV,Ali Cafe Amberpet,Ali Cafe Amberpet,17.3820655088299,78.5182115463216,ALI CAFE twd Amberpet
DkuF8ajC,Amberpet,Amberpet,17.3903063535608,78.5164546966552,AMBERPET twd Dilshuknagar
Wi1A6UP7,Gol Naka,Gol Naka,17.3905366344522,78.5063748247884,GOLNAKA twd MGBS
E0L28SCX,Kachiguda Kamela,Kachiguda Kamela,17.3879834929853,78.5030423108275,KACHIGUDA KAMELAtwd MGBS
PwlGD5EA,Chaderghat,Chaderghat,17.381472,78.492653,CHADARGHAT Kedia College twd Kachiguda
IR5YiCGc,Nimboliadda,Nimboliadda,17.38422366,78.49360194,NIMBOLIADDA twd Kachiguda railway station
AZ9WhQ64,Kachiguda Railway Station,Kachiguda Railway Station,17.3895000782067,78.4972641621289,KACHIGUDA Railway Station
JrvyFDPx,Tourist Hotel,Tourist Hotel,17.3910249620048,78.4964477653945,TOURIST HOTEL twd Koti
sp6IsDqi,Barkatpura,Barkatpura,17.3956878487116,78.4973452978285,BARKATPURA twd Uppal
2vJVGGV6,Fever Hospital,Fever Hospital,17.3954894926291,78.502201437639,FEVER Hospital twd Shankar matt
nzupSGfm,Tilak Nagar,Tilak Nagar,17.3941927561175,78.5085408392456,TILAKNAGAR twd Uppal
OsSkD3vJ,6 Number,6 Number,17.3917410056045,78.5107938931193,6 NUMBER twd Secunderabad
eM0iCuBF,Syndicate Bank Shivam,Syndicate Bank Shivam,17.3987323852445,78.5125601291656,SYNDICATE BANK twd Secunderabad
YrwNfhtT,Prashanth Nagar-Shivam Road,Prashanth Nagar-Shivam Road,17.400731315524,78.5134399058515,PRASHANTH NAGAR-SHIVAM twd Vidyanagar
hLdxxGbD,Shivam Ncc Gate,Shivam Ncc Gate,17.4052332709218,78.5153308815343,SHIVAM twd Secunderabad
wDqsOHCO,Vidya Nagar,Vidya Nagar,17.4050037150669,78.5107245368069,VIDYANAGAR twd Adikmet
EDD7CZaN,Ram Nagar Gundu,Ram Nagar Gundu,17.4075189567081,78.512372417963,RAMNAGAR GUNDU twd Secunderabad
oMKMbf1F,Ramnagar Mee Seva,Ramnagar Mee Seva,17.4091770457203,78.50878961007,RAMNAGAR Mee Seva twd Secunderbad
9WnLcplj,Ram Nagar,Ram Nagar,17.4108604367769,78.5072573852958,RAMNAGAR X RD twd Rtc x road
iCEipTv0,Ramnagar,Ramnagar,17.4095331156442,78.5066378116607,RAMNAGAR twd Secunderbad
X8BcAHUa,Vst Bus Stop,Vst Bus Stop,17.4040810034301,78.5037886351346,VST X ROAD twd Secunderabad
GqTmKBDr,Tsrtc Bus Bhavan,Tsrtc Bus Bhavan,17.4056659142196,78.4994293749332,TSRTC Bus Bhavan twd RTC x road
kw1N8NkB,Rtc X Road,Rtc X Road,17.4080278515745,78.4971857025137,RTC X Roads twd Secunderabad
x3XgqbYV,Golconda X Road,Golconda X Road,17.411665,78.497731,GOLCONDA X Road twd Secunderabad
a6xZndzb,Raja Delux,Raja Delux,17.4156575115019,78.498253222235,RAJA Deluxe twd Secunderabad
LDOgAU0x,Musheerabad Police Station,Musheerabad Police Station,17.4205788881338,78.5004875059228,MUSHEERABAD Police Station twd Secunderabad
ZiAbK1p0,Gandhi Hospital,Gandhi Hospital,17.4240847714495,78.5017588823732,GANDHI Hospital twd Secunderabad
jQvgQPeA,Bhoiguda Bus Stop,Bhoiguda Bus Stop,17.4279479076803,78.5020317882299,BHOIGUDA twd Secunderabad
DCaIPbe6,Chilkalguda,Chilkalguda,17.4329931181123,78.5059779899351,CHILKALGUDA twd Secunderabad
eNdxvjwG,Secunderabad,Secunderabad,17.4345705224371,78.5048789398436,RATHIFILE Bus Station
JmW0moXL,Chilkalguda,Chilkalguda,17.4324940574966,78.5060262680053,CHILKALGUDA twd Koti
DDgeQvKN,Bhoiguda Bus Stop,Bhoiguda Bus Stop,17.4280713786337,78.5022007686814,BHOIGUDA twd Koti
H3BCTb4F,Gandhi Hospital,Gandhi Hospital,17.4241671470292,78.5019711032509,GANDHI Hospital twd Musheerabad
rUaGsUWW,Musheerabad,Musheerabad,17.4187554655906,78.4998545065401,MUSHEERBAD Metro twd Koti
UQzoJQx1,Raja Delux,Raja Delux,17.4150202949878,78.4981620286843,RAJA DELUXE twd Koti
lwL1zY20,Golconda X Road,Golconda X Road,17.410802,78.498045,GOLCONDA X ROAD twd RTC X Road
RsudzIFL,Rtc X Road,Rtc X Road,17.4085272928372,78.4976229071617,RTC X ROADS twd Koti
YnGSuglF,Tsrtc Bus Bhavan,Tsrtc Bus Bhavan,17.4061266043217,78.4986984729767,TSRTC Bus Bhavan twd Vidyanagar
GdpLeJ1G,Vst Bus Stop,Vst Bus Stop,17.4041655553205,78.5044091468442,VST X ROAD twd Dilsuknagar
XmTP4oQr,Ramnagar,Ramnagar,17.4095471798766,78.5065828244311,RAMNAGAR twd Dilsukhnagar
qwiWay9U,Ram Nagar,Ram Nagar,17.4109714582318,78.5072386264801,RAMNAGAR X ROAD  twd Vidyanagar
AOavnxz9,Ramnagar Mee Seva,Ramnagar Mee Seva,17.4095644414969,78.5084429419839,RAMNAGAR Mee Seva twd Dilsukhnagar
tazuGjMO,Ram Nagar Gundu,Ram Nagar Gundu,17.4075854486501,78.5123777389526,RAMNAGAR GUNDU twd Vidyanagar
R7xKlH6Y,Vidya Nagar,Vidya Nagar,17.4049255253298,78.5122652588441,VIDYANAGAR twd Shivam
lVoiWMnm,Shivam Ncc Gate,Shivam Ncc Gate,17.4037425152572,78.5148507301774,SHIVAM ROAD twd 6 No X Road
x3beGYEW,Prashanth Nagar-Shivam Road,Prashanth Nagar-Shivam Road,17.401005200051,78.5136651276609,PRASHANTH NAGAR-SHIVAM twd SaroorNagar
g5XKqJft,Syndicate Bank Shivam,Syndicate Bank Shivam,17.3971598530292,78.5121288989435,SYNDICATE BANK twd 6 No X Road
JYcbaciy,6 Number,6 Number,17.3913666679683,78.5109876841306,6 NUMBER twd Uppal
h3dUxOt7,Gol Naka,Gol Naka,17.3905802633628,78.5063508053932,GOLNAKA twd Uppal
aL1OO4GH,Ali Cafe,Ali Cafe,17.3822561434741,78.518304077904,ALICAFE twd Dilshuknagar
t67QNigB,Sripuram Colony,Sripuram Colony,17.3761922323013,78.5147756185305,SRIPURAM COLONY twd Dilshuknagar
waBGSFEW,Moosarambhagh,Moosarambhagh,17.3707215331711,78.5150009355259,MUSARAMBAGH twd Dilshuknagar
z4qkq5ED,Kothapet X Road,Kothapet X Road,17.3683564641528,78.5383200592548,KOTHAPET twd Nagole
8ayey0mt,Kothapet X Road,Kothapet X Road,17.368062004757,78.5380786598212,KOTHAPET twd MGBS
qWSDfInu,Amberpet,Amberpet,17.392241,78.516642,AMBERPET twd Uppal
4veeZf8l,Lb Nagar,Lb Nagar,17.3459327377782,78.5505884885787,LB Nagar twd IBP Dist Bus Stop
kp2atLnL,Lb Nagar,Lb Nagar,17.3437053260996,78.5555291175842,LB Nagar (District stop) twd Vijayawada
uBRC6E1v,Abids Gpo,Abids Gpo,17.388783479337,78.4764039270628,ABIDS twd Nampally
N5qUm2ju,Jyothi Nagar,Jyothi Nagar,17.3826977881547,78.4295846314062,JYOTHI Nagar twd Upl
ZVypS8OB,Vasavi Trends,Vasavi Trends,17.4147,78.3544,VASAVI TRENDS
ijFEVs3A,Kokapet,Kokapet,17.4002,78.3531,KOKAPET
wGQAO4BG,Gar Kokapet,Gar Kokapet,17.4070455905344,78.3299338834014,GAR IT
PwCq8mkM,Financial District,Financial District,17.41552283,78.33384085,FINANCIAL DISTRICT twd Gachibowli
xDuZgZVu,Waverock,Waverock,17.4191554724204,78.3472715912625,WAVEROCK
ng3PytdJ,Icici Junction,Icici Junction,17.422299365015,78.3382078469403,ICICI Junction twd Gachibowli
xiDNKOoD,Wipro Circle,Wipro Circle,17.42619365,78.34065199,WIPRO Circle twd Gachibowli
LpMsCjvi,Infosys,Infosys,17.436867,78.347239,INFOSYS twd GachIbowli
nghxlyD8,Iiit,Iiit,17.4455058735302,78.3520651236176,IIIT twd Lingampally
vc5Q9ECR,Gachibowli,Gachibowli,17.4396632784838,78.363563397081,GACHIBOWLI twd kondapur
EtcFXW6q,Infosys,Infosys,17.437043,78.347696,INFOSYStwd WaveRock
vaQXvzRy,Wipro Circle,Wipro Circle,17.42559514,78.34062483,WIPRO Circle twd Kokapet
xs3Aco3F,Narsinghi,Narsinghi,17.3877640055706,78.3572166413068,NARSINGI twd Tolichowki
CHr4jZcC,Langar House,Langar House,17.374015,78.417593,LANGAR HOUSE (Bapu Nagar) twd Sedam
pDqOfr7l,Jyothi Nagar-Mehdipatnam,Jyothi Nagar-Mehdipatnam,17.3826904206909,78.4293640526899,JYOTHI Nagar twd Mp
27zhjgdJ,Nizam College,Nizam College,17.3974506871114,78.4754535458593,NIZAM College twd Afzal Gunj
JdUrmkif,Nalgonda X Road,Nalgonda X Road,17.375289,78.498622,NALGONDA X ROAD twd Dilshuknagar
UQ45gtbS,Moosarambhagh,Moosarambhagh,17.3695148407741,78.5167613704721,MOOSARAMBAGH twd Dilshuknagar
5N6sI7Xj,Vivekananda Nagar Clny,Vivekananda Nagar Clny,17.486536,78.410808,VIVEKANANDNAGAR Colony  twd Koti
JMkWVQta,Punjagutta,Punjagutta,17.42642205664,78.4527374812683,PUNJAGUTTA twd Koti
8ZLe57qP,Nampally Public Garden,Nampally Public Garden,17.3962160722698,78.4712742269039,PUBLIC GARDEN twd Gandhi Bavan
UzylZZpu,Gandhibavan,Gandhibavan,17.3877774853324,78.4719836256665,GANDHI Bhavan twd Afzalgunj
vgeabyCD,Osmangunj,Osmangunj,17.3805594457203,78.4752623230739,OSMANGUNJ twd Afzalgunj
7uS0TD0D,Afzalgunj,Afzalgunj,17.3738,78.478,AFZALGANJ CENTRAL LIBRARY twd CBS
OkZJgFnt,Cbs,Cbs,17.3782254855396,78.4816789115201,CBS
Xm2G887A,Patancheruvu,Patancheruvu,17.5295419780095,78.2641071137562,PATANCHERUVU twd Koti
Q2gnLU7r,Cbcid Colony-Hydernagar,Cbcid Colony-Hydernagar,17.4989268162069,78.380252122879,CBCID Colony twd Uppal
NwqcEy3z,Vasanth Nagar Bus Stop,Vasanth Nagar Bus Stop,17.49923794,78.3858737,VASANTH Nagar Bus Stop twd Koti
8F84QUv0,Remedy Hospital-Kuktplly,Remedy Hospital-Kuktplly,17.494976,78.398581,REMEDY HOSPITAL twd Miyapur
XmHNScZT,Habib Nagar,Habib Nagar,17.47799857,78.42047118,HABIB NAGAR twd JBS
JCZL3DCn,Old Malakpet,Old Malakpet,17.3733481213262,78.5042372218346,MALAKPET twd Dilsuknagar
V75SK5uQ,Ngos Colony Bus Stop,Ngos Colony Bus Stop,17.3249120475687,78.5664939884533,NGOS Colony Bus Stop
HMwRapuL,Govt Hospital-Bn Reddy Nagar,Govt Hospital-Bn Reddy Nagar,17.3293621930359,78.565851598978,GOVT HOSPITAL twd Panama
hMMnmHh4,Red Tank,Red Tank,17.3291599763717,78.5690045343939,RED TANK twd LB Nagar
vrnYxHIG,Banjara Hills Kaman,Banjara Hills Kaman,17.4082883567936,78.4387295869412,BANJARA Hills Kaman twd Kondapur
AGb9Nb0A,Vengal Rao Building Road No-12,Vengal Rao Building Road No-12,17.412,78.432,VENGALRAO Building twd Kondapur
f5ucfi9s,Mla Colony,Mla Colony,17.414103,78.424086,MLA COLONY twd Kondapur
EDUC3plA,Apollo Hospital-Jublie Hills,Apollo Hospital-Jublie Hills,17.4185826431341,78.4127819897499,APOLLO Hospital twd Kondapur
sHz79x1Y,Journalist Colony,Journalist Colony,17.4213570618352,78.4106522560623,JOURNALIST Colony twd Jublee Check Post
py4aHdMg,Road No 45,Road No 45,17.4247042443751,78.4091913699967,ROAD NO.45 twd Ambedkar university
zHKneATL,Peddamma Temple,Peddamma Temple,17.4275711811317,78.4054120353021,PEDDAMMA TEMPLE twd Ambedkar University
TJW89ejx,Ambedkar Open University,Ambedkar Open University,17.4342248773675,78.3963711479346,DR BR AMBEDKAR UNIVERSITY twd Madhapur
VpkEjYQG,Cable Bridge,Cable Bridge,17.435749097719,78.3944034576416,CABLE Bridge twd Madhapur
YfdCrVG1,Madhapur Police Station,Madhapur Police Station,17.4394570069756,78.3960154665042,MADHAPUR PS twd Shilparamam
dfVfHiYS,Madhapur Petrol Pump,Madhapur Petrol Pump,17.4411576427703,78.3895325660705,MADHAPUR PETROL PUMP twd Image hospital
wvP3Epey,Image Hospital,Image Hospital,17.4463582678616,78.3850050096321,IMAGE HOSPITAL twd Kondapur
UqKAXjCm,Hitech City (Cyber Towers),Hitech City (Cyber Towers),17.4508,78.3817,HITECH CITY twd Kondapur
LRe7WRO9,Shilparamam,Shilparamam,17.4538362156136,78.3789794091004,SHILPARAMAM twd Kondapur
MfWzlWid,Hitex,Hitex,17.4554613057259,78.377545773983,HITEX twd Kondapur
GTXNIgnf,Jayabheri,Jayabheri,17.4581387061477,78.3700060844421,JAYABHERI twd Kondapur
GGNgPrOC,Kothaguda X Roads,Kothaguda X Roads,17.4593566448455,78.3660417151489,KOTHAGUDA X RD twd Kondapur
5yqYXf1E,Kondapur,Kondapur,17.465164655953,78.3636975288391,KONDAPUR Terminal
Iki5lvGg,Kondapur,Kondapur,17.4639161324681,78.3672541379928,KONDAPUR twd Koti
ICTzJR7V,Kothaguda-Kondapur,Kothaguda-Kondapur,17.4586299813137,78.368176817894,KOTHAGUDA X ROAD  twd Koti
yIv2OeeO,Jayabheri,Jayabheri,17.4582602588777,78.3700788392015,JAYABHERI twd Koti
aXaG6whU,Hitex,Hitex,17.4551149839123,78.3781117252194,HITEX twd Koti
DeXR37jX,Hitech City (Cyber Towers),Hitech City (Cyber Towers),17.4499508389099,78.3825735798378,HITECH CITY twd Koti
NoZXEJpV,Image Hospital,Image Hospital,17.4439504530533,78.3872205456377,IMAGE HOSPITAL twd Koti
ZWRRdBlS,Madhapur Petrol Pump,Madhapur Petrol Pump,17.441419973866,78.3898922300528,MADHAPUR Petrol Pump twd Koti
WAUCrxs7,Madhapur Police Station,Madhapur Police Station,17.4389938717439,78.3970373970071,MADHAPUR PS twd Koti
blCozfco,Cable Bridge,Cable Bridge,17.4356365029577,78.3945375680923,CABLE Bridge twd Ambedkar university
VWi0fX4e,Ambedkar Open University,Ambedkar Open University,17.43444908111,78.3965814564821,DR BR AMBEDKAR UNIVERSITY twd Panjagutta
widmsCfp,Peddamma Temple,Peddamma Temple,17.4278065969838,78.4056158989794,PEDDAMMA TEMPLE twd Punjagutta
psb3CiV9,Road No 45,Road No 45,17.4248782648559,78.409434556961,ROAD NO.45 twd Panjagutta
zZiA1d01,Journalist Colony,Journalist Colony,17.4209934707316,78.411287983064,JOURNALIST Colony twd Film Nagar
smY2COrl,Apollo Hospital-Jublie Hills,Apollo Hospital-Jublie Hills,17.4182756831668,78.413468565777,APOLLO Hospital twd Koti
zzgotOlz,Mla Colony,Mla Colony,17.414393,78.424366,MLA COLONY twd Punjagutta
zKZkeMs6,Vengal Rao Building Road No-12,Vengal Rao Building Road No-12,17.4120950483391,78.4320589865788,VENGALRAO Building twd Koti
Cbj5tbV5,Banjara Hills Kaman,Banjara Hills Kaman,17.4095170566361,78.4380161733233,BANJARA Hills Kaman twd Koti
RpKg4BxO,Clock Tower Secunderabad,Clock Tower Secunderabad,17.4432944002706,78.498583257586,CLOCK Tower twd Lb Nagar
5bo1bbrm,Rethibowli,Rethibowli,17.394408,78.43122,RETHIBOWLI twd Uppal
LeH2BEeI,Gudi Malkapur X Roads,Gudi Malkapur X Roads,17.3872732832889,78.4297737784733,GUDIMALKAPUR X Road twd Aramghar
UnXhYFnH,Attapur,Attapur,17.370238,78.42947,ATTAPUR twd twd Uppal
DsuY79Ab,Hyderguda X Road,Hyderguda X Road,17.3638515358785,78.4283008815172,HYDERGUDA twd Aramghar
fZp54Q46,Upperpally,Upperpally,17.3556778255234,78.4223488723185,UPPERPALLY X Road twd Shamshabad
6xxROlUL,Aramghar X Roads,Aramghar X Roads,17.3215384194171,78.4324557245113,ARAMGHAR twd Chandrayangutta
EhWvEilH,Durga Nagar,Durga Nagar,17.3146325589378,78.4448209395794,DURGANAGAR X Road twd Uppal
IErfLDms,Mailardevpally,Mailardevpally,17.3162989056296,78.4496891542081,MAILARDEVPALLY twd Uppal
qCwK5b48,Palle Cheruvu,Palle Cheruvu,17.3157759525913,78.4559869792249,PALLE CHERUVU twd Lb Nagar
SA0QTWBz,Bandlaguda,Bandlaguda,17.3167285121707,78.4662330310163,BANDLAGUDA twd Lb Nagar
5VXNBKMa,Hashamaba,Hashamaba,17.3222416985113,78.4684330382144,HASHAMABAD twd LB Nagar
cu6mRmR3,Chandrayangutta,Chandrayangutta,17.3268378429616,78.4764711992836,CHANDRAYANGUTTA twd Uppal
TzhOElvd,Dlrl,Dlrl,17.3290290715121,78.4825707895458,DLRL twd Uppal
jMbdev6Y,Phool Bagh,Phool Bagh,17.3301968237659,78.485770227606,PHOOLBAGH twd Koti
VeCqKQnI,Hafiz Baba Nagar Hyd Bus Stop,Hafiz Baba Nagar Hyd Bus Stop,17.3319786480314,78.4903460821167,HAFIZ Baba Nagar twd Upl
cJeCRNPE,Drdl Gate Bus Stop,Drdl Gate Bus Stop,17.336944,78.496292,DRDL Gate twd Karmanghat
f251qAmF,Pisal Banda,Pisal Banda,17.3408743479249,78.5025040642768,PISALBANDA twd Uppal
t6jFs2vZ,Owaisi Hospital,Owaisi Hospital,17.3435363203425,78.506718131387,OWAISI Hospital twd Uppal
xgj1wjWO,Champapet,Champapet,17.3424175111965,78.5158934442745,CHAMPAPET X Road twd Uppal
N2jyRLqT,Manda Mallama X Road,Manda Mallama X Road,17.3397375894995,78.524220507583,MANDA MALLAMMA twd Uppal
sdwKwL7H,Gayatri Nagar X Road,Gayatri Nagar X Road,17.337745,78.531394,GAYATRI Nagar X Road twd Uppal
rCbqbiB4,Tkr Kaman,Tkr Kaman,17.3377092436284,78.5361848471568,TKR Kaman twd Uppal
ixaQ8kQB,Sagar X Road,Sagar X Road,17.3429628590539,78.5471472207659,SAGAR RING ROAD twd Uppal
hRpx46aJ,Uppal X Roads,Uppal X Roads,17.4012611610812,78.5600741129808,UPPAL X ROAD twd Secunderabad
bL2YDx7l,Sagar Ring Road,Sagar Ring Road,17.3415230105267,78.5461782627962,SAGAR Ring Road twd Mehdipatnam
Ec33x1z9,Tkr Kaman,Tkr Kaman,17.3374681096746,78.5361400984482,TKR Kaman twd Mehdipatnam
JSxAzCo9,Gayatri Nagar X Road,Gayatri Nagar X Road,17.337499,78.531372,GAYATRI NAGAR X ROAD twd Mehdipatnam
wITcyOuZ,Manda Mallama X Rds,Manda Mallama X Rds,17.3396787022642,78.5235848240254,MANDA Mallamma twd Mehdipatnam
vBctYwrb,Champapet,Champapet,17.3422335753195,78.5155184187164,CHAMPAPET X Road twd Mehdipatnam
DmBjyR5X,Owaisi Hospital,Owaisi Hospital,17.3433610172178,78.5068846194131,OWAISI HOSPITAL twd Midhani
wxwf67W2,Midhani Bus Station,Midhani Bus Station,17.3399538699639,78.5037925094765,PISAL BANDA
IW2PYgMJ,Drdl Gate Bus Stop,Drdl Gate Bus Stop,17.3368769926825,78.4967176621386,DRDL Gate twd Hyderabad
0JAlzxpT,Hafiz Baba Nagar Hyd Bus Stop,Hafiz Baba Nagar Hyd Bus Stop,17.3318968411465,78.490415817678,HAFIZ Baba Nagar twd Mehdipatnam
z5xmnEt6,Phool Bagh,Phool Bagh,17.3301245600479,78.4859633768317,PHOOLBAGH twd Mehdipatnam
XCkw4Nyw,Dlrl,Dlrl,17.32871884322,78.4827263152665,DLRL twd Mehdipatnam
XFtDDMjz,Chandrayangutta,Chandrayangutta,17.3265947272601,78.4765015506593,CHANDRAYANGUTTA twd Mehdipatnam
QQCGeB8G,Hashamabad,Hashamabad,17.3221181066863,78.4686765011248,HASHAMABAD twd Aramghar
CCbehcS7,Bandlaguda,Bandlaguda,17.3166887581552,78.4663885821443,BANDLAGUDA twd Aramghar
It0A5Z2C,Palle Cheruvu,Palle Cheruvu,17.3156018284239,78.4559869766755,PALLE CHERUVUtwd Aramghar
kD4VEJOZ,Mailardevpally,Mailardevpally,17.3160972708103,78.4494075336241,MAILARDEVPALLY twd Mehdipatnam
Pxmg1yJe,Durga Nagar-Aramghar,Durga Nagar-Aramghar,17.314699,78.443284,DURGANAGAR X Road twd Mehdipatnam
fsmqVQlp,Aramghar,Aramghar,17.321923936673,78.4313361375504,ARAMGHAR twd Mehdipatnam
75l9xhCY,Shivarampally,Shivarampally,17.3270558556829,78.4253410623255,SHIVARAMPALLY twd Mehdipatnam
GURjyKYg,Ws Colony,Ws Colony,17.3326488371641,78.4266362331868,WEAKER SECTION twd Mehdipatnam
3awNd1Nt,Dairy Farm Upperpally,Dairy Farm Upperpally,17.3459522600491,78.4157317129813,DAIRY Farm Upperpally twd Mehdipatnam
VRr55gta,Upperpally,Upperpally,17.356011771962,78.422264961366,UPPERPALLY X Road twd Mehdipatnam
N3JEm38W,Hyderguda X Roads,Hyderguda X Roads,17.3638406357059,78.4280893110761,HYDERGUDA twd Mehdipatnam
8M15jHYl,Attapur,Attapur,17.3702238497244,78.4291984140872,ATTAPUR twd Mehdipatnam
mJ8ZuY6u,Gudi Malkapur X Roads,Gudi Malkapur X Roads,17.3881563575305,78.42959406341,GUDIMALKAPUR X Road twd Mehdipatnam
I78eTakJ,Rethibowli,Rethibowli,17.3957059351167,78.4310746275802,RETHIBOWLI RING ROAD P&T COLONY twd Gachibowli
yH2yDVEE,Uppal X Roads,Uppal X Roads,17.4020086097413,78.5589838435319,UPPAL X Road twd Uppal
9DCzryFF,Budvel,Budvel,17.3332591726593,78.4097349643707,BUDVEL twd RajendraNagar
eRLCw0uQ,Rajendranagar,Rajendranagar,17.32189574613,78.4021013881793,RAJENDRA Nagar twd Himayatsagar
Swrd4aGR,Walanthari,Walanthari,17.3226895183209,78.3819311847579,WALANTHARI twd Appa
TTRoWOhD,Himayath Sagar,Himayath Sagar,17.325,78.374,HIMAYAT SAGAR twd Appa
YzXpLExW,Himayath Sagar,Himayath Sagar,17.3390660958163,78.3621204147545,HIMAYATH SAGAR twd Appa
lDJjvb06,"Police Academy, Tspa Junction","Police Academy, Tspa Junction",17.3506870191219,78.3581242337822,POLICE ACADEMY twd Chevella
TjsPFvGm,Ashramam-Machirevula,Ashramam-Machirevula,17.3729615894126,78.3496561606981,ASHRAM twd Manchirevula
1MNtzQta,Kokapet X Rd,Kokapet X Rd,17.4007083036194,78.3521425755146,NARSING X ROAD twd Gachibowli
dkc5ID9D,Nanakramguda,Nanakramguda,17.4194963486706,78.3548636459881,NANAKRAMGUDA twd Gachibowli
uQzCHgss,Gachibowli,Gachibowli,17.4382165570664,78.3635097658834,GACHIBOWLI ORR twd RGIA
pBAvhULW,Engine Bowli,Engine Bowli,17.335,78.469,ENGINE BOWLI twd Falaknama
k2YQHYFX,Falaknuma Railway Bridge,Falaknuma Railway Bridge,17.328047431734,78.4743359666083,FALAKNUMA RLY BRIDGE twd Chandrayangutta
EZfYLnK0,Chandrayangutta,Chandrayangutta,17.3269668473962,78.4759627286131,CHANDRAYANGUTTA
G1fOvABq,Aliabad,Aliabad,17.3475865142603,78.4706130665745,ALIABAD twd Afzalgunj
YbD0Y8F3,Syed Ali Chabutra,Syed Ali Chabutra,17.3478784997553,78.4709188443223,SAYADHALI CHEBUTRAn twd Secunderabad
ooQLRJfM,Laldarwaza,Laldarwaza,17.351185,78.472519,LALDARWAZA twd Afzalgunj
IBt2GB6e,Lb Stadium,Lb Stadium,17.39869208,78.47431552,LB STADIUM twd Tank bund
hWGPbcMs,Basheer Bagh,Basheer Bagh,17.4018421415577,78.4757736325263,BASHEER BAGH twd Tankbund
owb0V3v4,Liberty,Liberty,17.40733719,78.47665574,LIBERTY twd Secunderabad
ujD3cAVQ,Boats Club,Boats Club,17.428673421485,78.4887474804192,BOATS Club twd Secunderabad
stmCFGt3,Liberty,Liberty,17.4060203897622,78.4770973026752,LIBERTY twd Afzalgunj
sb6fKoWH,Basheer Bagh,Basheer Bagh,17.4015989264733,78.4758916505224,BASHEER Bagh twd Charminar
74a7Y5zO,Abids Gpo,Abids Gpo,17.3873089052465,78.4762483895117,ABIDS GPO twd Afzalgunj
Ij8M0H6H,Afzalgunj,Afzalgunj,17.3733071516688,78.4769324077334,AFZALGUNJ twd Charminar
8ACyyVNb,Darushifa,Darushifa,17.3732686356587,78.4829860900961,DARUL Shifa twd Charminar
gERyNnm3,Purani Haveli,Purani Haveli,17.367562,78.481414,PURANI Haveli twd Charminar
mM9oPo3P,Mir Chowk Police Statiom,Mir Chowk Police Statiom,17.3639334556944,78.4804517403244,MIR CHOWK POLICE STATION twd Falaknama
RFmZiqQA,Bibi Bazar,Bibi Bazar,17.3586002499905,78.4793302566544,BIBI BAZAR twd Charminar
gSARuvgj,Shahalibanda,Shahalibanda,17.3546886207381,78.4732871917597,SHALIBANDA twd Chandrayangutta
kCfLiJWN,Laldarwaza,Laldarwaza,17.351204,78.472682,LALDARWAZA twd Chandryangutta
75cs74mw,Aliabad,Aliabad,17.3474536854909,78.4705728454187,ALIABAD twd Chandryangutta
g0u0kkLC,Engine Bowli,Engine Bowli,17.3366120256244,78.4649080042235,ENGINEBOWLY twd vattepally
Zys2ENKp,Vattepally,Vattepally,17.3282919205667,78.4568935632705,VATTEPALLY
QoNYX8Sl,Nice Hotel,Nice Hotel,17.3294599216243,78.4589366202893,NICE HOTEL twd Vattepally
aRmSZ2LE,Engine Bowli,Engine Bowli,17.3366337556067,78.4648007232256,ENGINEBOWLY twd Charminar
FAh6nlSi,Punjagutta,Punjagutta,17.4271047130994,78.452116549015,PUNJAGUTTA twd Miyapur
Q2roBGmK,Habib Nagar,Habib Nagar,17.47748242,78.42059523,HABIB NAGAR twd Miyapur
YkeBNOUj,Govt Degree College Kukatpally,Govt Degree College Kukatpally,17.48175519,78.41551512,GOVERNMENT Degree College twd Patancheruvu
yUx0geRd,Ramdev Rao Hospital,Ramdev Rao Hospital,17.4898940259221,78.4079968921486,RAMDEV RAO HOSPITAL twd Patancheruvu
8Fs7ywsy,Vasanth Nagar Bus Stop,Vasanth Nagar Bus Stop,17.498712,78.386862,VASANTH NGR BUS STOP twd Patancheruvu
Cp59Yb6X,Deepthi Sri Nagar,Deepthi Sri Nagar,17.494731,78.345525,DEEPTHI SRI NAGAR twd Patancheruvu
Fyjq1kdg,Allwyn,Allwyn,17.5247616261256,78.271719205382,ALWYN twd Patancheruvu
pF5CouKp,Falaknuma Govt Junior College,Falaknuma Govt Junior College,17.3366992154857,78.4745622894956,FALAKNUMA Govt Jr College
lNAmUGoE,Rajanna Bavi,Rajanna Bavi,17.3396114607507,78.4730887409517,RAJANNA BAVI twd Secunderabad
vQVCpqNd,Pool Bagh,Pool Bagh,17.3422307184518,78.4741240790674,POOLBAGH CHAMAN twd Laldarwaza
4VYDN7mJ,Laldarwaza,Laldarwaza,17.3466547205871,78.4753310680389,LALDARWAZA Temple twd Secunderabad
A9GtbRA9,Laldarwaza,Laldarwaza,17.3469645066659,78.4751245379447,LALDARWAZA Temple twd Huppuguda
5ujaHZM4,Chatrinaka,Chatrinaka,17.3436430138384,78.4780171339657,CHATRINAKA twd Huppuguda
343azeNk,Uppuguda,Uppuguda,17.3338073021556,78.4811148596435,NALLAVAGU twd Chandrayanagutta
TdN7ab6j,Uppuguda,Uppuguda,17.33379514027,78.4810766381653,NALLAVAGU twd Huppuguda
lobxtiF5,Chatrinaka,Chatrinaka,17.3433320093857,78.4780295836707,CHATRINAKA twd Charminar
xtzkxEUT,Malakpet Sohail Hotel Twd Is Sadan,Malakpet Sohail Hotel Twd Is Sadan,17.3725059761093,78.4995138645172,MALAKPET Sohail Hotel twd Is Sadan
7oIAeAfF,Government Press,Government Press,17.367,78.502,GOVT PRESS  twd Is Sadan
WRsBNOCI,Saidabad,Saidabad,17.3593324824561,78.5048299879303,SAIDABAD twd Is Sadan
vGnPbg9e,Madannapet,Madannapet,17.3577503726026,78.5053503397802,MADANAPET twd IS Sadan
4A3CZW2t,I.S Sadan,I.S Sadan,17.3518160309819,78.5078635308405,IS SADAN twd Ibrahimpatnam
DSO5i9r7,Champapet,Champapet,17.3483444564784,78.5151940584182,CHAMPAPET twd Meerpet
X8rP02Ro,Champapet X Road,Champapet X Road,17.3440484004649,78.5153844952583,CHAMPAPET Gandhi Statue twd Almasguda
a3Ae6WDL,Manda Mallama X Rds,Manda Mallama X Rds,17.3395115741734,78.5238347947597,MANDAMALLAM twd Meerpet
VVuX0LgA,Vijaya Durga Colony,Vijaya Durga Colony,17.3350360848428,78.5261106491088,VIJAYA Durga Colony twd Almasguda
wLNmT0QU,Jillelguda,Jillelguda,17.3309803984344,78.5261186957359,JILLELGUDA twd Almasguda
iJmimelJ,Lalitha Nagar X Road,Lalitha Nagar X Road,17.328,78.526,LALITHA Nagar X Road twd Almasguda
TNvCkTcg,Meerpet X Road,Meerpet X Road,17.322937891693,78.5278674960136,MEERPET X Road twd Almasguda
t1fX3E3u,Meerpet Swimming Pool,Meerpet Swimming Pool,17.3197551023401,78.5295921564102,MEERPET Swimming Pool twd Almasguda
Zb9gKbSu,Prashanti Hills,Prashanti Hills,17.316485196165,78.5328322649002,PRASHANTI HILLS twd Almasguda
luW1T9nr,Almasguda,Almasguda,17.3099554279186,78.5314938720069,ALMASGUDA Pg College twd Almasguda
fft1QFpt,Almasguda,Almasguda,17.3090527928623,78.5332037508487,ALMASGUDA twd Rageevgruhakalpa
sdB2PJWH,Ysr Colony-Badangpet,Ysr Colony-Badangpet,17.3082144084872,78.5340342932906,YSR COLONY twd Rajivgruhakalpa
0z8BG6dd,Rajivgruhakalpa Bus Stop,Rajivgruhakalpa Bus Stop,17.2976391,78.5388755,RAJIVGRUHAKALPA
M7DW5Tpp,Ysr Colony-Badangpet,Ysr Colony-Badangpet,17.3081478326111,78.5340369800116,YSR COLONY twd Almasguda
TslzbBQw,Almasguda,Almasguda,17.3090655965717,78.5331608355045,ALMASGUDA twd meerpet
ppL4QGQP,Almasguda,Almasguda,17.3105892316221,78.5314482450485,ALMASGUDA Pg College twd Koti
D9obVsYG,Prashanti Hills,Prashanti Hills,17.316646516315,78.5328295826912,PRASHANTI Hills twd Koti
92KqGdsB,Meerpet Swimming Pool,Meerpet Swimming Pool,17.319,78.53,MEERPET Swimming Pool twd Koti
vwCf7rKq,Meerpet X Road,Meerpet X Road,17.3229199678527,78.5278058052062,MEERPET X Road twd Koti
B9APHEc9,Lalitha Nagar X Road,Lalitha Nagar X Road,17.328,78.526,LALITHA Nagar X Road twd Koti
V9ncTDpC,Jillelguda,Jillelguda,17.3309714369068,78.5261361300945,JILLELGUDA twd Koti
YZekmFx4,Vijaya Durga Colony,Vijaya Durga Colony,17.3349810366688,78.526129424572,VIJAYA Durga Colony twd Koti
GHs498kd,Champapet X Road,Champapet X Road,17.3439818141588,78.5152746105143,CHAMPAPET Gandhi Statue twd Koti
TLBNahRH,Champapet,Champapet,17.348647,78.515104,CHAMPAPET twd IS Sadan
IpF2dQbE,I.S Sadan,I.S Sadan,17.3528727565318,78.5064426820987,IS SADAN twd Koti
OzFQNaP8,Saidabad,Saidabad,17.3594758499584,78.5047066343739,SAIDABAD twd MGBS
eY4zmGfJ,Government Press,Government Press,17.3674283676173,78.5016381743315,GOVERNMENT PRINTING PRESS twd Koti
MjoFz8zE,Nalgonda X Roads,Nalgonda X Roads,17.3721091979051,78.4995460510254,MALAKPET Government Hospital twd Koti
CAf4y5Mn,Ramoji Film City,Ramoji Film City,17.311516,78.683365,RAMOJIFILM CITY twd Nalgonda
ZGUfWDKx,Ashoka,Ashoka,17.2882545659265,78.7700548867073,ASHOKA COLLEGE twd Choutuppal
EtHQ5KB7,Borollagudem,Borollagudem,17.2728970056166,78.8179480656981,BOROLLAGUDEM twd Choutuppal
5o6U1JzN,Yellagiri,Yellagiri,17.2635001983187,78.8390278816223,YELLAGIRI twd Choutuppal
ltdAGh7m,Lakkaram,Lakkaram,17.256200133297,78.88855420053,LAKKARAM GATE twd Suryapet
rhC1eEb8,Chinna Kondur,Chinna Kondur,17.299278,78.900798,CHINNA KODUR twd Valigonda
jD2Q10Nc,Peddakodur Kalan,Peddakodur Kalan,17.317341,78.903445,PEDDA KODURU twd Valigonda
AzuDsLCp,Nakkalagudem,Nakkalagudem,17.341927,78.917149,NAKKALAGUDEM twd Valigonda
pPUCIACA,Thummalaguda,Thummalaguda,17.332,79.053,THUMMALGUDA twd Dsnr
r9vV0q0c,Sangam,Sangam,17.3613229080872,78.9315319241761,SANGAM twd Dilsukhnagar
EEVgKBV9,Verkatpalle,Verkatpalle,17.345,78.943,VARKATPALLY
XiSQV35g,Nemili Kalawa Valigonda,Nemili Kalawa Valigonda,17.343,79.01,NEMILIKALUVA
hNXSsoVC,Gokaram X Road,Gokaram X Road,17.3336919160949,78.9975357059171,GOKARAM X ROAD twd Hyderabad
3sZ6V9Rr,Nagaram -Valigonda,Nagaram -Valigonda,17.3566803403742,79.029140173611,NAGARAM Twd Bhuvnagiri
NwBvo5j5,Valigonda,Valigonda,17.3789208644006,79.0176790375392,VALIGONDA Bus Station
19BWVxTi,Gokaram,Gokaram,17.3336931405592,78.9974640290005,GOKARAM X RD twd Choutuppal
zeSxijPl,Verkatpalle,Verkatpalle,17.345,78.943,VARKATPALLY twd Dsnr
KIWkTW9j,Nakkalagudem,Nakkalagudem,17.34191,78.917177,NAKKALAGUDEM twd Choutuppal
1HnhDCTx,Peddakodur Kalan,Peddakodur Kalan,17.317421,78.903534,PEDDA KODURU twd Choutuppal
DeBjbZNi,Chinna Kondur,Chinna Kondur,17.299286,78.900862,CHINNA KODURU twd Choutuppal
BCXkbzEn,Chadarghat Rose Bakery,Chadarghat Rose Bakery,17.3772723670828,78.4912258386611,CHADARGHAT Rose Bakery twd MGBS
XFG29jWC,Mgbs Exit,Mgbs Exit,17.3769317068796,78.4863870962363,MGBS EXIT twd Afzalgunj
ljBZ4Tf2,Darul Shifa,Darul Shifa,17.3736738283202,78.4832597392937,DARUL SHIFA twd Koti
mWeMEay9,Mgbs,Mgbs,17.3769521813519,78.486266390542,MGBS EXIT twd Chadarghat
MkmJffCr,Sagar X Road,Sagar X Road,17.340736,78.548133,SAGAR Ring Road twd Devarkonda
MNGipNAN,Hastinapur,Hastinapur,17.3289050824443,78.5546265599295,HASTINAPUR twd Ibrahimpatnam
v7PTHC52,Bn Reddy Nagar,Bn Reddy Nagar,17.3199522455265,78.5606146163516,BN Reddy twd Ibrahimpatnam
GN2hoK0u,Gurram Guda X Road,Gurram Guda X Road,17.3045804174883,78.5708928167336,GURRAMGUDA X Road twd Ibrahimpatnam
LGG5JFs6,Injapur X Roads,Injapur X Roads,17.2987555934125,78.5829569477913,INJAPUR twd Ibrahimpatnam
Z6QHCsDT,Turkayamjal,Turkayamjal,17.2728366129609,78.5890915989876,TURKYAMJAL twd Ibrahimpatnam
jKR8nPF7,Ragannaguda,Ragannaguda,17.262043090004,78.586106300354,RAGANNAGUDA twd Ibrahimpatnam
KVmOms9E,Manneguda X Road,Manneguda X Road,17.2552163618687,78.5857859549052,MANNEGUDA X ROAD twd Ibrahimpatnam
cdasbxjl,Bongloor X Road,Bongloor X Road,17.231374,78.58928,BONGLOOR X ROAD twd Devarkonda
tb7RUzaa,Koheda X Road,Koheda X Road,17.2197368264635,78.600096834615,KOHEDA X ROAD twd Ibrahimpatnam
A1q2izKE,Mangalpally X Road,Mangalpally X Road,17.2150013751192,78.6053006915175,MANGALPALLY X Road twd Ibrahimpatnam
DHA8B4mY,Sheriguda -Ibp,Sheriguda -Ibp,17.208482,78.61978,SHERIGUDA
Nm7fwnQL,Uppariguda X Road,Uppariguda X Road,17.2052610691642,78.6199453264384,UPPARIGUDA X Road twd Ibrahimpatnam
XwupUlwk,Ibrahimpatnam,Ibrahimpatnam,17.1914372027429,78.6476646736264,IBRAHIMPATNAM Bus Station
xOawOv0d,Khanapur X Road,Khanapur X Road,17.1752296990476,78.6545884649024,KANAPUR X Road twd Ibrahimpatnam
LGaCmjm6,Gnit,Gnit,17.1626316368715,78.6605402797702,GURUNANAK INSTITUE OF TECHNOLOGY twd Mall
Vy4phlJE,Gnit,Gnit,17.1619524664954,78.660832653155,GURUNANAK INSTITUE OF TECHNOLOGY twd Ibrahimpatnam
t8yMVHEy,Uppariguda X Road,Uppariguda X Road,17.2052412122423,78.6196844816119,UPPARIGUDA X ROAD  twd MGBS
V5RBnbfT,Sheriguda -Ibp,Sheriguda -Ibp,17.208683,78.619542,SHERIGUDA twd Hyderabad
y1F1cZC3,Mangalpally X Road,Mangalpally X Road,17.2148895470595,78.605139269899,MANGALPALLY X Road twd MGBS
b9waiyQ0,Koheda X Road,Koheda X Road,17.2198406899512,78.5994325357924,KOHEDA X Road twd Mgbs
X8CaE3i1,Bongloor X Road,Bongloor X Road,17.231567,78.588984,BONGLOOR X ROAD twd Hyderabad
1s7LOTOC,Manneguda X Road,Manneguda X Road,17.2552528631065,78.5856411156192,MANNEGUDA X Road twd Yamjal
lNLj4zN4,Ragannaguda,Ragannaguda,17.2623940009035,78.5859668254852,RAGANNAGUDA twd JBS
ZGt2Dmoa,Brahmanapally X Roads,Brahmanapally X Roads,17.2668483067046,78.5889078772384,BRAHMANPALLY X ROAD twd Hyderabad
pxpLADcq,Turkayamjal,Turkayamjal,17.2735843784724,78.5887455940246,TURKYAMJAL twd MGBS
gt0N9y5A,Injapur X Roads,Injapur X Roads,17.298892336755,78.5824224037872,INJAPUR  twd MGBS
A4Xl5Xo2,Gurram Guda X Road,Gurram Guda X Road,17.3045240581198,78.5704206842778,GURRAMGUDA X ROAD twd LB Nagar
0GqsyDdN,Sagar Complex,Sagar Complex,17.3121090129956,78.5637152194977,SAGAR COMPLEX twd Bn Reddy
MMOWOPw6,Bn Reddy Nagar,Bn Reddy Nagar,17.320458,78.56039,BN REDDY twd Hyderabad
GG8fV7fI,Hastinapur,Hastinapur,17.3294723376788,78.5537105876512,HASTINAPURAM twd MGBS
bf8FVrxy,Brahmanapally X Roads,Brahmanapally X Roads,17.2667586137528,78.5890191819891,BRAHMANPALLY X ROAD twd Ibrahimpatnam
mswkY15F,Budwel,Budwel,17.3422389351942,78.4224700927734,Budwel twd Aramghar
qdFHvg0o,Lal Dhaba,Lal Dhaba,17.3417831795729,78.4228573337438,LAL DHABA twd Mehdipatnam
PdmKiXUy,Toli Chowki,Toli Chowki,17.3987425530824,78.4156090021133,TOLICHOWKI twd Shaikepet
io15C5gx,Brindhavan Colony,Brindhavan Colony,17.4028012915132,78.4101634472608,BRINDAVAN COLONY twd Gachibowli
i4AV9TdE,Shaikpet Nala,Shaikpet Nala,17.407302,78.401751,SHAIKPETNALA twd Lingampally
R1CATqti,Darga,Darga,17.413264,78.394529,DARGA twd Lingampally
NEVC6NLz,Khajaguda X Rd,Khajaguda X Rd,17.423083109934,78.3812365043227,KHAJAGUDA X Road twd Lingampally
yf59S2JP,Bio Diversity,Bio Diversity,17.429031,78.374323,BIODIVERSITY twd Lingampally
c2zOpk6c,Telecom Nagar Hyd,Telecom Nagar Hyd,17.435076,78.367627,TELECOM Nagar twd Lingampally
n7vlkWjQ,Gachibowli,Gachibowli,17.4390347869667,78.3629518747329,GACHIBOWLI X Road twd Lingampally
bdSrRqNp,Gachibowli Stadium,Gachibowli Stadium,17.450753,78.346141,GACHIBWOLI Stadium twd Lingampally
zRXwmnh5,Hcu Small Gate,Hcu Small Gate,17.45687,78.339608,HCU SMALL GATE twd Lingampally
AjpbhKZY,Masjid Banda,Masjid Banda,17.460190839421,78.3371919878583,MASJID Banda twd Lingampally
RF3jCHQo,Hcu Main Gate,Hcu Main Gate,17.4615364565237,78.3359098137359,HCU MAIN GATE twd Lingampally
MJtIyjPz,Hcu Main Gate,Hcu Main Gate,17.468116,78.331202,HCU Depot Gate twd Lingampally
GwprEEDE,Alind,Alind,17.4766829201984,78.324601650238,ALIND DOYENE COLONY twd Lingampally
pNXDxvVH,Lingampally Railway Station,Lingampally Railway Station,17.4797354850763,78.315213959708,LINGAMPALLYRLY Station twd Lingampally
7MdXjeIa,Pc Tanda,Pc Tanda,17.537051685278,78.2428276573111,PC Tanda twd Isnapur
0l2E0UAI,Muttangi,Muttangi,17.5424509031418,78.2266309484839,MUTHANGI twd Sangareddy
UpGoAMox,Isnapur,Isnapur,17.5473678920398,78.2118308544158,ISNAPUR  twd Sangareddy
QOgAri1N,Lakdaram,Lakdaram,17.55509268,78.18896804,LAKDARAM Road twd Zaheerabad
gpemP4F7,Rudhraram,Rudhraram,17.5636564886283,78.1666087700932,RUDRARAM twd Sangareddy
PkUgUQw2,Bellampalli Market,Bellampalli Market,17.371068,78.525539,DILSUKHNAGAR Bus Depot
syDcjL17,New Bridge,New Bridge,17.439378,78.525373,NEW BRIDGE twd Secunderabad Rly station
PFR4SNzv,Huda X Rd Saroornagar,Huda X Rd Saroornagar,17.3668946398981,78.5398650247164,HUDA Complex twd Saroor Nagar
XGeIy2l5,Huda Colony,Huda Colony,17.3623842793489,78.5395337740268,HUDA Colony twd Saroornagar
bS1MSLsx,Victoria Memorial School,Victoria Memorial School,17.3618790779567,78.5394519896203,VICTORIA School twd Saroor Nagar
jkbwqw4w,Saroornagar Mndl Office,Saroornagar Mndl Office,17.357272656427,78.5362024514497,SAROORNAGAR MANDAL OFFICE twd Saroornagar
JWDrcXYl,Muncipal Ofc Saroornagar,Muncipal Ofc Saroornagar,17.359,78.537,MCH OFFICE twd Saroornagar
iR0NmrzZ,Saroor Nagar,Saroor Nagar,17.3525597349048,78.5354623393205,SAROOR NAGAR Post Office
PWediCrV,Saroornagar Mndl Office,Saroornagar Mndl Office,17.3573049169144,78.5361890569095,SAROORNAGAR MANDAL OFFICE twd Dilshuknagar
CkkOWKgr,Muncipal Ofc Saroornagar,Muncipal Ofc Saroornagar,17.359,78.537,MCH COMPLEX twd Secunderabad
Y91ljc8k,Victoria Memorial School,Victoria Memorial School,17.3619359875362,78.5393392835062,VICTORIA SCHOOL twd Secunderabad
NDZkQKd8,Huda Colony,Huda Colony,17.3623891434212,78.5394331821111,HUDA Colony twd Dilshuknagar
VhTXsCWH,Huda X Rd Saroornagar,Huda X Rd Saroornagar,17.3674350725991,78.5397362861516,HUDA Complex twd Secunderabad
qIAhjJzi,Shivarampally,Shivarampally,17.327,78.435,SHIVARAMPALLY twd Aramgarh
16GQJz2H,Kachiguda Kamela,Kachiguda Kamela,17.3880679573677,78.5030061006025,KACHIGUDA KAMELA twd Uppal
HffUPsTS,Zinda Tilismath,Zinda Tilismath,17.3876315439846,78.5111425817013,ZINDA TILISMATH twd uppl
1PfDELSJ,Amberpet Gandhi Statue,Amberpet Gandhi Statue,17.3927021364897,78.5198235669701,AMBERPET Gandhi Statue twd Uppal
LNPGO1LK,Irani Hotel,Irani Hotel,17.3935210099999,78.5222000020522,IRANI Hotel twd Uppal
B2PQUqws,Ramanthapur Tv Studio,Ramanthapur Tv Studio,17.396713,78.52988,RAMANTHAPUR TV STUDIO twd Uppal
rOjObtmd,Ramanthapur,Ramanthapur,17.397903,78.532729,RAMANTHAPUR Colony twd Uppal
ETS5vL8h,Ramanthapur Public School,Ramanthapur Public School,17.3991956550093,78.5362386703491,RAMANTHAPUR  PUBLIC SCHOOL twd Uppal
aJjYwWrD,Ramanthapur Church,Ramanthapur Church,17.401107,78.54349,RAMANTHAPUR CHURCH twd Uppal
GBqGFBMX,Modern Bakery,Modern Bakery,17.4013200137829,78.5500118136405,MODERN Bakery twd Uppal
qVTY9k3k,Uppal X Roads,Uppal X Roads,17.40158108,78.56194295,UPPAL X Road twd Ghatkesar
Mnr10S9i,Uppal Bus Stop,Uppal Bus Stop,17.4016552928995,78.568759084472,UPPAL Bus Station
DARZcGbD,Peerzadiguda Kaman,Peerzadiguda Kaman,17.4013609650348,78.5815733671188,PEERZADIGUDA Khaman twd Uppal Depot
9mRire0L,Boduppal Kaman,Boduppal Kaman,17.4047458102347,78.5865203663706,BODUPPAL Kamman twd Indiranagar
0OVOfgxG,Sunny Bakery-Boduppl,Sunny Bakery-Boduppl,17.415033083324,78.5850978194733,SUNNY BAKERY twd Boduppal colony
uGaH1vRM,Ambedkar Statue Boduppal,Ambedkar Statue Boduppal,17.418388158198,78.584405771586,AMBEDKAR STATUE twd Boduppal colony
pHQb1H0H,Water Tank Boduppal,Water Tank Boduppal,17.4192404287462,78.581720217971,WATER Tank twd Chilkanagar
qJRR3arp,Indra Nagar-Boduppal,Indra Nagar-Boduppal,17.4219633039833,78.5804092892316,INDIRA NAGAR
AXnxhRKy,Hayath Nagar Bus Stand,Hayath Nagar Bus Stand,17.32707761,78.60373244,HAYATHNAGAR twd Koti
VgDlJTb0,Jbs,Jbs,17.4475659222319,78.4966358566233,JBS twd Secunderabad
Fr8xImCr,Water Tank Boduppal,Water Tank Boduppal,17.4192915997503,78.5816511390513,WATER Tank twd Boduppal Kamaan
Nc1cRlAD,Ambedkar Statue Boduppal,Ambedkar Statue Boduppal,17.4182169539744,78.5846443866831,AMBEDKAR STATUE twd Boduppal Kamman
xN8gSebA,Sunny Bakery-Boduppl,Sunny Bakery-Boduppl,17.4150765661629,78.585189012104,SUNNY BAKERY twd Boduppal Kamman
bGRebiXX,Boduppal Kaman,Boduppal Kaman,17.4046140008006,78.5866749332661,BODUPPAL twd JBS
G3Zpsr6s,Peerzadiguda Kaman,Peerzadiguda Kaman,17.4012387511152,78.5816015303135,PEERZADIGUDA Khaman twd JBS
UsLG96x8,Uppal Bs,Uppal Bs,17.401465902576,78.5710000991821,UPPAL BUS STAND twd Uppal X Road
qKfbvH4T,Modern Bakery,Modern Bakery,17.4012202785731,78.5500252265352,MODERN Bakery twd Koti
LOa6jsKp,Ramanthapur Church,Ramanthapur Church,17.401,78.544,RAMANTHAPUR Church twd Koti
qCYClJlG,Ramanthapur Public School,Ramanthapur Public School,17.3994644005553,78.5377943515777,RAMANTHAPUR Public School
nyqH0iWW,Polytechnic College-Ramanthapur,Polytechnic College-Ramanthapur,17.3953477514488,78.5269099485933,POLYTECHNIC College twd Koti
J37ZgGmj,Irani Hotel,Irani Hotel,17.393275579242,78.521894209139,IRANI Hotel twd Koti
LW55dkBm,Amberpet Gandhi Statue,Amberpet Gandhi Statue,17.3923924219235,78.5194104909897,AMBERPET Gandhi Statue twd Kacheguda
4q7T16Er,Zinda Tilismath,Zinda Tilismath,17.3876,78.5111,ZINDA TILISMATH twd koti
eHfFJzFj,Chaderghat,Chaderghat,17.3814704018214,78.4929102663387,CHADARGHAT MCH Quarters twd Afzalgunj
P7gQUU8q,Cbs,Cbs,17.3778530498046,78.481928159873,CBS twd Afzalgunj
PjtVmWLt,Uppal Gandhi Statue,Uppal Gandhi Statue,17.4015228520953,78.5660460591316,UPPAL GANDHI STATUE twd Uppal
9KD6Qf8o,Word And Deed School,Word And Deed School,17.3213989827461,78.6134697808098,WORD AND DEED twd RFC
4eTcIx5j,Gandi Mysamma Temple-Abdullahpurmet,Gandi Mysamma Temple-Abdullahpurmet,17.3151153605729,78.6738334028457,GANDIMAISAMMA twd RFC
CEX84LLR,Ramoji Film City,Ramoji Film City,17.31132,78.683128,RAMOJI FILM CITY twd JBS
p1z6WxxP,Gandi Mysamma Temple-Abdullahpurmet,Gandi Mysamma Temple-Abdullahpurmet,17.3150062573872,78.6737554341103,GANDIMAISAMMMA twd Hayath nagar
BMEY3ApO,Word And Deed School,Word And Deed School,17.320909150707,78.6136220162649,WORD AND DEED twd JBS
w5wCAtvW,Cherlapally Phase 1,Cherlapally Phase 1,17.45946154498,78.5905587667411,PHASE 1 twd Cherlapally
9WCdx88A,Ganesh Temple Kaman Cherlapally,Ganesh Temple Kaman Cherlapally,17.4590367292689,78.5951219729444,GANESH KAMAAN twd Cherlapally
PiEeyUSk,Ec Nagar,Ec Nagar,17.4591942710095,78.5990426027444,EC NAGAR twd Cherlapally
9T84PzhC,Ec Nagar,Ec Nagar,17.4591493993247,78.5990264996203,EC NAGAR twd Mallapur
2TAxnGhR,Ganesh Temple Kaman Cherlapally,Ganesh Temple Kaman Cherlapally,17.4589600685794,78.595199005664,GANESH KAMAAN twd Mallapur
JsM4aJsN,Cherlapally Phase 1,Cherlapally Phase 1,17.4594231610572,78.5907143354416,PHASE 1 twd Mallapur
ypgflX0a,Hcl X Roads,Hcl X Roads,17.4552435582255,78.5814741178768,HCL X ROAD twd Mallapur
ZC9cuPhg,Ashoknagar-Mallapur,Ashoknagar-Mallapur,17.45,78.581,ASHOK NAGAR twd Uppal
bxqlmPtU,Nfc X Roads,Nfc X Roads,17.4482645957394,78.575389534235,NFC X Road twd Mallapur
YAQJf9bd,Noma Function Hall Nacharam,Noma Function Hall Nacharam,17.4469851935289,78.5722821950912,NOMA twd Habsiguda
f6oeVXYR,Mallapur,Mallapur,17.4448332187589,78.5673496127128,MALLAPUR twd Tarnaka
vFTKha5O,Janapriya - Mallapur,Janapriya - Mallapur,17.442148966178,78.5660883039236,JANAPRIYA twd Uppal
6R4ISSCd,Nacharam X Road,Nacharam X Road,17.43312488,78.55464408,NACHARAM X Rd twd Tarnaka
1tPdniFT,Nacharam,Nacharam,17.4278353371075,78.5509331524372,NACHARAM Village twd Secunderabad
Zlg504xr,Barkatpura Bus Depot,Barkatpura Bus Depot,17.3923137148681,78.501152023673,BARKATPURA Bus Depot
zI0YQHC7,Barkatpura,Barkatpura,17.3940023428158,78.4983418229843,BARKATPURA twd Koti
WmzuokM6,Kachiguda X Roads,Kachiguda X Roads,17.3906928539118,78.4893751144409,KACHIGUDA X Road twd Koti
nQotD9EE,Goshamahal,Goshamahal,17.3838329898546,78.4741508873597,GOSHAMAHAL twd Mehdipatnam
bBZgUon7,Darusalam,Darusalam,17.3828142322222,78.4652888782676,DARUSALAM twd MP
lGyB3RaU,Bhoiguda Kaman,Bhoiguda Kaman,17.3828120978178,78.4604280968422,BHOIGUDA Kaman twd Mehdipatnam
X5rrIKse,Seethrambagh,Seethrambagh,17.3851670143251,78.4581478348899,SEETHARAMBAGH twd Mehdipatnam
EcYAl4Um,Mallepally,Mallepally,17.3891905207692,78.4545799909196,MALLEPALLY twd Mehdipatnam
8i0N6xJd,Asifnagar,Asifnagar,17.3898731287234,78.4516039669194,ASIFNAGAR twd Mehdipatnam
y2CUeob7,Nanal Nagar,Nanal Nagar,17.396070525664,78.426761465449,NANAL Nagar twd Shaikpet
cra7QW2M,Khajaguda X Road,Khajaguda X Road,17.4224701296765,78.3818064609028,KHAJAGUDA X ROAD twd Nanakramguda
YWIdVc49,Lanco Hills,Lanco Hills,17.418,78.3703,LANCO HILLS twd Goulidoddi
pGxe0Sf7,Khajaguda,Khajaguda,17.4178757498523,78.3673084600916,KHAJAGUDA twd Gowlidoddi
3wPoHTH2,Nanakramguda,Nanakramguda,17.4194811625586,78.354515992105,NANAKRAMGUDA twd Wipro
CvwKMs0N,Wipro Circle,Wipro Circle,17.42762385,78.3417864,WIPRO Circle twd Gar Kokapet
W9CokUTo,Q City,Q City,17.4266094832148,78.3315311405188,Q CITY twd Gowlidoddy
Sm2dyUa2,Gowli Doddi,Gowli Doddi,17.4298620916888,78.3243200180833,GOWLIDODDY twd Gopanpally
kwLW4s15,Gopanpally X Roads,Gopanpally X Roads,17.4462398951776,78.3067589239835,GOPANPALLY X Roads twd Kollur
hHMjjlFQ,Gopanpally,Gopanpally,17.4532533649753,78.3061692788275,GOPANPALLY twd Lingampally
bAPeQYQ7,Aparna Apartments,Aparna Apartments,17.4620663214473,78.3081382343845,APARNA Apartments twd Lingapally
p3yCm2Vh,Citizen Hospital,Citizen Hospital,17.4701765404121,78.3098610408932,CITIZEN Hospital twd Lingampally
FGOQybzG,Nallagandla,Nallagandla,17.477527071965,78.3066308373707,NALLAGANDLA twd Lingampally
tDEWS7qE,Nallagandla,Nallagandla,17.4774952559204,78.3072196638077,NALLAGANDLA twd Mehdipatnam
1dFyOc5w,Gopanpally X Roads,Gopanpally X Roads,17.4458937066109,78.3074985357837,GOPANPALLY X Roads twd Mehdipatnam
spVMAJCg,Gowli Doddi,Gowli Doddi,17.4297372977593,78.3246754109144,GOWLIDODDY twd Mehidipatnam
MyeZootB,Q City,Q City,17.4267131025038,78.331561984999,Q CITY twd Mp
7WZ1aaAI,Khajaguda,Khajaguda,17.4180095173479,78.3672983937095,KHAJAGUDA twd Mehidipatnam
3LZ21Nh6,Lanco Hills,Lanco Hills,17.4182475844826,78.3704728005234,LANCO HILLS twd Mehidipatnam
CuYaOmG2,Asifnagar,Asifnagar,17.3900219833668,78.4518481161863,ASIFNAGAR twd Masabtank
BzhlypU0,Seethrambagh,Seethrambagh,17.3852152234588,78.4582507551199,SEETHARAMBAGH twd Nampally
90Ixzm5e,Mallepally,Mallepally,17.389280610266,78.4548888972957,MALLEPALLY twd Masabtank
SyAFFhpz,Bhoiguda Kaman,Bhoiguda Kaman,17.3829038191752,78.460514540462,BHOIGUDA Kaman twd Nampally
Gs4zNvFT,Darusalam,Darusalam,17.3832725480405,78.4659325986498,DARUSALLAM twd Nampally
RZ6oSgtY,Secunderabad,Secunderabad,17.4369249562,78.5052494893,SECUNDERABAD twd ECIL
wkqXnQtG,Omkar Nagar,Omkar Nagar,17.337184,78.550306,OMKAR NAGAR twd Ibrahimpatnam
SR8fs7TH,Hasthinapuram,Hasthinapuram,17.3323015820028,78.5529702929845,SANTHOSH MATHA TEMPLE twd Ibrahimpatnam
wELAag5b,Hastinapur,Hastinapur,17.326919798663,78.5564250074453,HASTINAPUR Naveena College twd Ibrahimpatnam
rIYonRH8,Sagar Complex,Sagar Complex,17.313,78.563557,SAGAR Complex twd Ibrahimpatnam
InPIS0f2,Katta Mysamma,Katta Mysamma,17.2918271478022,78.5871147885397,YAMJAL KATTA MAISAMMA twd Ibrahimpatnam
IBjfvmSP,Sathireddy Garden,Sathireddy Garden,17.279626230124,78.5872435407957,ROKKAM SATHI REDDY GARDEN twd  Ibrahimpatnam
gw9FCBOl,Sri Indu College,Sri Indu College,17.2138185236963,78.6112224061401,SRI INDU COLLEGE twd Ibrahimpatnam
ysfhkpHS,Ibrahimpatnam Bs,Ibrahimpatnam Bs,17.1972156018136,78.6500340772026,IBP Old Bus Stand
hy9XDQtt,Khanapur X Road,Khanapur X Road,17.1753681741301,78.654717211514,KANAPUR X Road twd Mall
12jVZctl,Sri Indu College,Sri Indu College,17.2136724685766,78.6105010063187,SRI INDU COLLEGE twd MGBS
A1WvIo0L,Sathireddy Garden,Sathireddy Garden,17.2795954975666,78.586964626531,ROKKAM SATHI REDDY GARDEN twd  Hyderabad
fbXMzuz9,Katta Mysamma,Katta Mysamma,17.2917708154281,78.5868814587593,YAMJAL KATTA MAISAMMA twd Hyderabad
s1ciYFx5,Hastinapur,Hastinapur,17.326891,78.556174,HASTINAPUR Naveena college twd LB Nagar
YKUfHmfJ,Hasthinapuram,Hasthinapuram,17.332662,78.552672,SANTHOSH MATHA TEMPLE twd Hyderabad
XciC9kAE,Omkar Nagar,Omkar Nagar,17.336996,78.550159,OMKAR NAGAR twd LB Nagar
jnhepcwu,I.S Sadan,I.S Sadan,17.3518621167661,78.506989162061,IS SADAN twd Kalwakurthy
R8wJZ3RA,Pisal Banda,Pisal Banda,17.3405126767706,78.5023697403326,PISALBANDA twd Mehdipatnam
IiG9DB77,Barkas,Barkas,17.3174582072414,78.4796561300754,BARKAS twd Maheshwaram
Rc9wdOaA,Sadat Nagar,Sadat Nagar,17.2924175473547,78.4737711288894,SADATH NAGAR twd Maheswaram
qgFCxsYj,Jalpally X Rd,Jalpally X Rd,17.2831183498853,78.471830824927,JALPALLY X Road twd Maheswaram
W6rYwrFr,Pahadi Shareef,Pahadi Shareef,17.271089,78.474293,PAHADI SHARIF twd RGIA
7qLVXCAF,Sheep Farm,Sheep Farm,17.2572013756364,78.4755239485049,SHEEP FARM twd Maheswaram
4jPGnvmh,Sardar Nagar,Sardar Nagar,17.2323004539549,78.4732791755161,SARDAR NAGAR twd Chandrayangutta
EQHXghba,Tukkuguda,Tukkuguda,17.208974,78.476849,TUKKUGUDA twd Kalwakurthy
SsBJkUmh,Imamguda-Mhrm,Imamguda-Mhrm,17.1927904519589,78.4751781821251,IMAMGUDA twd Amangal
G2jz20fO,Maheshwaram Gate,Maheshwaram Gate,17.1789352748012,78.4738290309906,MAHESHWARAM GATE twd Amangal
O77FG903,Lemur X Roads,Lemur X Roads,17.1643129845825,78.4768331078052,LEMURGATE twd Amangal
qUrxHWWg,Thummaloor-Gate,Thummaloor-Gate,17.1324304173473,78.4778674319386,TUMMALUR GATE twd Kalwakurthy
ZkCeyQwu,Rachloor,Rachloor,17.1244225194625,78.4771113842725,RACHLOOR Gate twd Kalwakurthy
3fKRWT8s,Gudur Gate,Gudur Gate,17.0921930129521,78.4745746805847,GUDUR GATE twd Amangal
pgNHfS46,Kandukur X Roads,Kandukur X Roads,17.0728516554555,78.4740102359588,KANDUKUR X ROAD twd Kalwakurthy
kHBvCa7Q,Nedunur X Road Bus Stop,Nedunur X Road Bus Stop,17.0558961018663,78.4733512625098,NEDUNUR X ROAD twd Kalwakurthy
CnfehgBU,Debbdaguda X Road,Debbdaguda X Road,17.0250457125562,78.4922889992594,DEBBADAGUDA X Road twd Kalwakurthy
ImX0Gt2G,Mucherla X Road,Mucherla X Road,17.0098994137825,78.4980064644036,MUCHERLA X ROAD twd Kalwakurthy
MBkeYmMB,Kadthal-Rr,Kadthal-Rr,16.985662241007,78.5018017589146,KADTHAL TWD Kalwakurthy
oxSHflbW,Kadthal Toll,Kadthal Toll,16.970514277609,78.5078287124634,KADTHAL TOLLPLAZA twd Maisigandi
YvvDOaQi,Maisigandi,Maisigandi,16.9544444653848,78.5172821581363,MAISIGANDI twd Kalwakurthy
nxxL7DNs,Karkalpahad,Karkalpahad,16.9255846643368,78.527345471084,KARKALPAHAD twd Kalwakurthy
5jOivZ4z,Konapur,Konapur,16.9016665091581,78.5307723269667,KONAPUR twd Kalwakurthy
8SKCwoNx,Vithaipalle,Vithaipalle,16.8833274287033,78.5291670262813,VITHAIPALLY twd Kalwakurthy
HpaEdwHS,Amangal,Amangal,16.8494237607003,78.530365973711,AMANGAL twd Kalwakurthy
ijDmBeoe,Amangal,Amangal,16.8492235460907,78.5300535069404,AMANGAL Bus Station
CdD8QCGq,Vithaipalle,Vithaipalle,16.8776336597892,78.5291361808777,VITHAIPALLY twd Chandrayangutta
Yl6zRmEP,Konapur,Konapur,16.9016979789453,78.5307468566972,KONAPUR twd MGBS
EDzzNI7j,Karkalpahad,Karkalpahad,16.9256549092742,78.5272784158587,KARKALPAHAD twd Mgbs
88shEE44,Maisigandi,Maisigandi,16.9539675779427,78.5176281630992,MAISIGANDI twd MGBS
NO4rl0HZ,Kadthal Toll,Kadthal Toll,16.970404,78.50755,KADTHAL TOLLPLAZA twd Kdthal
KN6TFMTZ,Kadthal-Rr,Kadthal-Rr,16.9776064964536,78.5042227079737,THALAKONDAPAL KADTHAL twd MGBS
P1E54cxx,Debbdaguda X Road,Debbdaguda X Road,17.0249700548882,78.4922397115646,DEBBADAGUDA X Road twd Hyderabad
6Js4QCW9,Nedunur X Road Bus Stop,Nedunur X Road Bus Stop,17.0562044518291,78.4731973707675,NEDUNUR X ROAD twd Mgbs
fr73RYnn,Kandukur X Roads,Kandukur X Roads,17.0730026806934,78.4738558716929,KANDUKUR X ROAD twd MGBS
OpC9MtAI,Gudur Gate,Gudur Gate,17.0922830184815,78.4744781244442,GUDUR GATE twd Issadan
BZ6CNUv4,Thummaloor-Gate,Thummaloor-Gate,17.1325733151251,78.4776910766959,THUMMALUR GATE twd Chandrayangutta
S4XsHZ3h,Lemur X Roads,Lemur X Roads,17.1639386557682,78.4770476810193,LEMURGATE twd Issadan
pMMcgfkk,Maheshwaram Gate,Maheshwaram Gate,17.1788776174698,78.473666422069,MAHESHWARAM GATE twd Tukkuguda
vIHj5Y8w,Imamguda-Mhrm,Imamguda-Mhrm,17.192,78.475,IMAMGUDA twd Issadan
DyTjB39h,Tukkuguda,Tukkuguda,17.2094590206857,78.4766815540738,TUKKUGUDA twd MGBS
IU64dNs3,Sheep Farm,Sheep Farm,17.2471694250429,78.4736117720603,SHEEP FARM AIRPORT ROAD twd Chandrayangutta
xqxkzh7P,Pahadi Shareef,Pahadi Shareef,17.270961638522,78.4741428487689,PAHADI SHARIF twd Mgbs
nFCvT7lL,Jalpally X Rd,Jalpally X Rd,17.2833706183488,78.4716008255087,JALPALLY X Road twd Koti
Hp2X7QHz,Sadat Nagar,Sadat Nagar,17.2924239497884,78.473679933785,SADAT NAGAR twd koti
3sRrB5c5,Barkas,Barkas,17.3173807762738,78.4795877342946,BARKAS twd MGBS
e6qOPEPv,Chinthalapally,Chinthalapally,16.8451778407697,78.4959036125534,CHINTHALAPALLI twd Midjil
cHoFZ03g,Khanapur-Thalakondapally,Khanapur-Thalakondapally,16.8543985537194,78.4660291667946,KHANAPUR twd Midjil
HJSMWYtj,Venkatraopeta-Thalakondapally,Venkatraopeta-Thalakondapally,16.8289785802527,78.452982900861,VENKATRAOPETA
Tm4DSGUh,Gattu Ippalapalle,Gattu Ippalapalle,16.7976390144123,78.4451910712384,GATTU IPPALAPALLY twd Urkonda Gate
i0WglC8N,Bommarasipalle,Bommarasipalle,16.7820469870577,78.4022998840931,BOMMARASIPALLE twd Thalakondapalli
2B2BaS3d,Ramreddipalle-Urkonda,Ramreddipalle-Urkonda,16.763412855914,78.3915790861035,RAMREDDYPALLE twd Thalakondapalli
NepBcvAq,Khanapur-Thalakondapally,Khanapur-Thalakondapally,16.855,78.464,KHANAPUR twd Issadan
dCq8YCG2,Chinthalapally,Chinthalapally,16.8452293259915,78.4960909642424,CHINTHALAPALLY twd Amangal
hQYYZWl5,Mgbs,Mgbs,17.3783009920458,78.4841654992328,MGBS BS
UyS1mnyb,Lakkaram,Lakkaram,17.2561581891061,78.8865053281188,LAKKARAM GATE twd LB nagar
KsWfGI4B,Yellagiri,Yellagiri,17.263234135234,78.8386178389191,YELLAGIRI twd LB Nagar
sj7vAEuA,Borollagudem,Borollagudem,17.2735706118312,78.8157510012388,BORRALAGUDEM twd LB nagar
uU1QWRWE,Ashoka,Ashoka,17.2881905417132,78.7699932371622,ASHOKA COLLEGE twd Hayathnagar
CYcFRyW1,Patny,Patny,17.4431110965758,78.4988875884066,PATNY twd LB Nagar
oGpujZ0X,Paryatak Bhavan,Paryatak Bhavan,17.4338655516405,78.4557670354843,PARYATAK Bhavan twd RGIA
