stop_id,stop_name,stop_lat,stop_lon,mode,nearest_metro_id,nearest_metro_name,dist_to_metro_m,in_walk_zone,in_feeder_zone,route_diversity,Morning_freq,Midday_freq,Evening_freq
RgqMpbyP,Charminar,17.3586779379233,78.4740276935276,bus,MGB,Mahatma Gandhi Bus Station,3604.094111505,False,False,61.0,13.333333333333334,18.666666666666668,48.25
ZesADyKB,Shahalibanda,17.3547499301873,78.4730243996454,bus,MGB,Mahatma Gandhi Bus Station,4190.744671799262,False,False,54.0,46.666666666666664,35.333333333333336,33.5
CSCQevOc,Kilwat,17.3601274663828,78.4713749367239,bus,OMC,Osmania Medical College,3600.310983592371,False,False,46.0,49.333333333333336,34.666666666666664,34.0
RcYax5EA,Moosabowli,17.3642745722327,78.4666682034731,bus,GAB,Gandhi Bhavan,3360.5759550451967,False,False,43.0,50.666666666666664,36.0,33.75
UoDW1Rgg,City College,17.3674526453567,78.468290285547,bus,GAB,Gandhi Bhavan,2840.2363937272394,False,True,51.0,52.0,39.0,41.25
s4V6Ks4J,Madina,17.3703739526348,78.4755915518183,bus,OMC,Osmania Medical College,1956.8723974118368,False,True,85.0,50.333333333333336,52.666666666666664,61.25
RvkZZP0d,Afzalgunj,17.3734,78.4759,bus,OMC,Osmania Medical College,1541.3089065101442,False,True,82.0,75.33333333333333,69.66666666666667,90.5
RprCTGDf,Osmangunj,17.3801592673954,78.4749823530744,bus,GAB,Gandhi Bhavan,879.3689669458824,False,True,45.0,64.0,66.0,72.25
TB1fWaY6,Gandhibavan,17.3883456592865,78.4713882267767,bus,GAB,Gandhi Bhavan,469.031186499867,True,True,45.0,52.333333333333336,42.0,58.5
0Yr3hLAU,Nampally Railway Station,17.3921594944245,78.4700497866643,bus,NAM,Nampally,18.520210546499236,True,True,118.0,90.0,106.66666666666667,137.75
48NXpBnL,Nampally Public Garden,17.396278,78.470819,bus,ASM,Assembly,256.1677320952548,True,True,110.0,97.66666666666667,111.0,140.5
d2BfiTmX,Assembly,17.400243,78.470014,bus,ASM,Assembly,358.87402466113673,True,True,68.0,40.666666666666664,49.666666666666664,77.75
USn7tbeB,Lakdikapool,17.403609,78.464974,bus,LKP,Lakdi-ka-pul,65.06149949286737,True,True,132.0,113.33333333333333,117.0,171.5
FDukZMjs,Chintal Basthi,17.408898,78.460376,bus,KHA,Khairatabad,414.78372422972456,True,True,43.0,39.666666666666664,56.0,73.25
3UhhD7eG,Khairatabad,17.4141654370489,78.4586397146155,bus,KHA,Khairatabad,495.6079921193672,True,True,46.0,40.0,61.666666666666664,67.0
5g4se2Gv,Khairatabad,17.415785,78.457715,bus,IRM,Erra Manzil,692.6619839038492,True,True,31.0,3.3333333333333335,24.0,31.5
3OS7bBog,Irram Manzil,17.4207529745163,78.4556972452341,bus,IRM,Erra Manzil,121.96451578617942,True,True,55.0,29.0,53.0,71.25
fAXfvzII,Nims Hospital,17.4230084956761,78.4543890506029,bus,IRM,Erra Manzil,501.7046814226892,True,True,57.0,26.666666666666668,59.0,72.75
YY5SqKbk,Punjagutta,17.4263228789209,78.4526288578677,bus,PUN,Panjagutta,458.5894168825752,True,True,35.0,6.333333333333333,32.666666666666664,37.75
DqrzaqZu,Pvr Mall Bus Stop,17.429381,78.450406,bus,PUN,Panjagutta,103.08916188621558,True,True,55.0,23.666666666666668,52.333333333333336,58.75
8A7oqeuK,Ameerpet,17.431553,78.44765,bus,PUN,Panjagutta,614.7654223644835,True,True,67.0,31.333333333333332,83.66666666666667,93.0
Z9DjfexL,Maithrivanam,17.4400455444335,78.4423641399989,bus,SRN,S. R. Nagar,516.4017237700161,True,True,71.0,24.666666666666668,80.66666666666667,83.5
OCMZCOeo,Sr Nagar,17.4429652533606,78.4407372772693,bus,SRN,S. R. Nagar,23.284224227762806,True,True,76.0,19.666666666666668,79.33333333333333,89.0
C5vY3BnB,Esi Hospital,17.448534,78.437619,bus,ESI,ESI Hospital,24.388004220006255,True,True,77.0,15.0,71.0,81.0
zsjaTD5B,Erragadda,17.45617,78.433778,bus,ERA,Erragadda,134.35852884879972,True,True,86.0,14.0,70.0,84.75
M2X1Ipi9,Bharath Nagar,17.4672320840219,78.4287786531682,bus,BTN,Bharat Nagar,693.6851390223751,True,True,62.0,4.666666666666667,52.0,70.25
3DO7lfEx,Moosapet,17.4708131052901,78.4266757867274,bus,MSP,Moosapet,179.16145306629664,True,True,70.0,10.333333333333334,44.333333333333336,72.75
lRqEgaCy,Prashanth Nagar Bus Station,17.4747639938041,78.4255492638318,bus,MSP,Moosapet,437.97562190766087,True,True,47.0,2.6666666666666665,13.666666666666666,48.75
7XcsjLgc,Balnagar,17.4678792576715,78.4460842558063,bus,BTN,Bharat Nagar,2351.129703675018,False,True,76.0,10.0,21.666666666666668,47.25
odvoWxTv,Idpl Water Tank,17.4817254492905,78.4490239615526,bus,MSP,Moosapet,3600.2908934480993,False,False,75.0,8.0,19.0,48.25
eE6hZh6A,Idpl Colony,17.48791105,78.45000699,bus,MSP,Moosapet,4181.355651876392,False,False,78.0,6.0,19.0,42.75
m180Kw2G,Ganesh Nagar Chintal,17.49089,78.45099,bus,MSP,Moosapet,4560.910461516543,False,False,70.0,5.333333333333333,15.333333333333334,33.0
2mWqvKcq,Chintal,17.4954,78.452103,bus,MSP,Moosapet,5123.6350609872725,False,False,72.0,3.6666666666666665,13.666666666666666,31.0
xmSPBDXm,Quthubullapur X Road,17.4988973901797,78.4517598142825,bus,BLR,Balanagar,5390.537933628224,False,False,70.0,5.333333333333333,16.333333333333332,32.0
CSMDq4oC,Hmt,17.5028457131321,78.4502873428154,bus,BLR,Balanagar,5618.044769853634,False,False,38.0,0.6666666666666666,2.3333333333333335,5.75
WQorkUId,Gajularam X Road,17.510098,78.447706,bus,BLR,Balanagar,6191.949571336313,False,False,68.0,7.333333333333333,15.333333333333334,31.0
G1qKP8Cw,Shapur Nagar,17.5160012189185,78.44690233469,bus,KUK,Kukatpally,6854.165799017461,False,False,72.0,3.3333333333333335,13.333333333333334,24.25
U3va4YT2,Rythu Bazar,17.5176100977818,78.4465912079349,bus,KUK,Kukatpally,6987.546702564061,False,False,65.0,3.3333333333333335,14.333333333333334,22.25
r2e2nKni,Sub Station-Jeedimetla,17.522757333829,78.443386182835,bus,KUK,Kukatpally,7250.0276775463,False,False,69.0,2.3333333333333335,9.666666666666666,20.25
cR5ySdRd,Jeedimetla,17.5263603742832,78.4403121683698,bus,KPH,KPHB Colony,7363.723511001114,False,False,63.0,2.0,6.333333333333333,16.5
Tv9yBqAe,Saibaba Nagar,17.536032,78.434701,bus,KPH,KPHB Colony,7884.640865281455,False,False,60.0,5.333333333333333,6.0,9.25
R0Cm6Ou4,Suraram X Road,17.5414896115876,78.433754146099,bus,KPH,KPHB Colony,8478.293958200351,False,False,61.0,5.666666666666667,5.333333333333333,8.0
5E4f69aT,Bahadur Pally X Road,17.5605816217093,78.4307647277243,bus,KPH,KPHB Colony,10817.14067825236,False,False,55.0,5.666666666666667,4.0,8.0
o9dJvoaR,Gandimaisamma,17.5750752414753,78.4231942875569,bus,JNT,JNTU College,12433.164181946604,False,False,64.0,17.333333333333332,10.0,14.0
xOUsyoa9,Mehdipatnam Bus Depot,17.392219,78.440777,bus,LKP,Lakdi-ka-pul,3892.918847524776,False,False,53.0,12.333333333333334,17.666666666666668,10.25
NUmq3A4e,Mehdipatnam,17.394725176503,78.4401726329458,bus,LKP,Lakdi-ka-pul,3818.3587674578785,False,False,162.0,117.0,141.66666666666666,163.25
jQUipGEE,Nanal Nagar,17.3951285939056,78.4273423211172,bus,JR5,Road No 5 Jubilee Hills,5253.798081115211,False,False,68.0,29.666666666666668,35.333333333333336,29.0
JDSxM2WM,Langar House,17.37843771,78.4209751,bus,NAM,Nampally,7354.350829422156,False,False,62.0,29.666666666666668,34.0,28.25
7guxqq8S,Bapu-Ghat,17.374015,78.417593,bus,NAM,Nampally,8021.193458319687,False,False,59.0,30.0,29.0,30.0
832f0Tns,Tippu Khan Bridge,17.3710263938323,78.4046226919575,bus,JCP,Jubilee Hills Checkpost,8645.443069737043,False,False,46.0,21.0,19.0,24.25
1dz6Of8P,Suncity,17.36476225,78.39571808,bus,JCP,Jubilee Hills Checkpost,9828.339935813348,False,False,39.0,19.0,14.666666666666666,22.0
iXcFXrHu,Bandlaguda X Road,17.3595680039347,78.3879889547825,bus,JCP,Jubilee Hills Checkpost,10903.592191638692,False,False,42.0,18.333333333333332,17.333333333333332,27.75
VHOGEY4R,Peeram Cheru,17.3544984086384,78.3790216386236,bus,JCP,Jubilee Hills Checkpost,12090.321438272322,False,False,39.0,16.333333333333332,13.666666666666666,23.75
gg1O2ENL,Kalimandir,17.3523319158945,78.3770152830632,bus,JCP,Jubilee Hills Checkpost,12504.741602838829,False,False,39.0,16.0,14.666666666666666,25.0
54suq5uU,Appa Junction,17.3509353823721,78.358016599364,bus,RDG,Raidurg,13889.389575040252,False,False,34.0,14.0,15.666666666666666,23.0
qccftrvg,Golden Farms,17.3536900829418,78.3421030568725,bus,RDG,Raidurg,14130.53385912593,False,False,29.0,10.666666666666666,15.0,20.25
FLnjOddn,Osman Sagar X Rd,17.3531014085184,78.3308846424825,bus,RDG,Raidurg,14860.09925999475,False,False,30.0,6.666666666666667,14.333333333333334,20.25
BAsXhVXt,Aziz Nagar X Roads,17.3441405101479,78.3248162287542,bus,RDG,Raidurg,16448.94862608704,False,False,29.0,3.3333333333333335,15.333333333333334,19.0
T8BKEMqk,Himayathnagar X Road,17.3386325066237,78.3119065256401,bus,RDG,Raidurg,18073.33142817044,False,False,21.0,0.6666666666666666,9.666666666666666,11.5
cVsyEttO,Jbiet College Amdapur X Road Bus Stop,17.33140703,78.29720456,bus,RDG,Raidurg,20130.020585424827,False,False,20.0,0.3333333333333333,8.0,9.75
dHLhPczE,Decent Poultry,17.3310725785397,78.2931339740753,bus,RDG,Raidurg,20509.41007241128,False,False,20.0,0.3333333333333333,7.333333333333333,9.25
zGYSG7bl,Sathsang,17.3300279118566,78.2801198974909,bus,RDG,Raidurg,21781.230053344807,False,False,20.0,0.0,5.666666666666667,7.5
4HJn54j9,Moinabad Bus Stop,17.328394,78.272705,bus,RDG,Raidurg,22659.71573296148,False,False,20.0,0.0,4.0,7.75
lnjUAaN4,Ayaan College,17.31438034,78.25669684,bus,RDG,Raidurg,25753.912133049846,False,False,13.0,0.0,1.6666666666666667,5.75
wlPJRBNI,Kanakamamidi,17.313230608327,78.2489177584908,bus,RDG,Raidurg,26640.962621161445,False,False,13.0,0.0,0.6666666666666666,6.25
uCKYOKAS,Kethireddy Pally X Road,17.3101910558261,78.2288923504272,bus,RDG,Raidurg,29010.45015313662,False,False,12.0,0.0,0.3333333333333333,4.75
R1auSRjt,Appareddyguda X Road,17.310196184866,78.2237640015452,bus,RDG,Raidurg,29554.52179415567,False,False,11.0,0.0,0.3333333333333333,5.0
YXAEgiIa,Tholkatta X Roads,17.3134559371845,78.2169190049171,bus,RDG,Raidurg,29979.180116607822,False,False,11.0,0.0,0.0,5.5
nJkfMg0G,Mudimyal,17.31947984,78.20895821,bus,RDG,Raidurg,30312.232756314945,False,False,10.0,0.0,0.0,4.5
BugaVeWl,Kandawada X Road,17.3071821813279,78.1823748323694,bus,RDG,Raidurg,34475.14030627493,False,False,10.0,0.0,0.0,3.25
3F5hR7yF,Malkapur,17.312,78.172,bus,RDG,Raidurg,35292.18773079784,False,False,9.0,0.0,0.0,2.5
SAhnyNt4,Kesaram,17.30638448,78.1610097,bus,RDG,Raidurg,37072.39408982266,False,False,9.0,0.0,0.0,0.75
oi5Cgsii,Chevella Bs,17.313487,78.138914,bus,RDG,Raidurg,39234.86357306491,False,False,12.0,6.0,5.333333333333333,8.0
fTpo5ntA,Kesaram,17.30654741,78.16108078,bus,RDG,Raidurg,37050.51967657852,False,False,10.0,4.666666666666667,4.333333333333333,5.75
rFMmZ6lY,Malkapur,17.3122833003731,78.1719732296992,bus,RDG,Raidurg,35272.07210805859,False,False,10.0,4.333333333333333,4.333333333333333,6.25
CExXC0fB,Kandawada X Road,17.3072513370426,78.1824137340463,bus,RDG,Raidurg,34464.56050512006,False,False,11.0,4.333333333333333,4.0,7.0
tFPKmxrs,Mudimyal,17.3196244863605,78.2090869486037,bus,RDG,Raidurg,30284.43198849702,False,False,11.0,4.0,4.0,7.0
cIwp9JJA,Tholkatta X Roads,17.3134828652038,78.2169860663658,bus,RDG,Raidurg,29969.20876851108,False,False,12.0,4.0,4.333333333333333,7.5
jAH3WOsZ,Appareddyguda X Road,17.310229763875,78.2237717136935,bus,RDG,Raidurg,29550.348198796186,False,False,12.0,3.6666666666666665,5.0,8.25
03dKkFHP,Kethireddy Pally X Road,17.3102601740201,78.2290184497833,bus,RDG,Raidurg,28990.1421845477,False,False,13.0,3.0,4.666666666666667,8.25
sUYRAR1o,Kanakamamidi,17.3132484672966,78.2487916954735,bus,RDG,Raidurg,26651.54755001951,False,False,14.0,3.3333333333333335,5.333333333333333,9.0
nfkRd9nz,Ayaan College,17.31466329,78.25676423,bus,RDG,Raidurg,25716.076065820187,False,False,12.0,3.0,5.333333333333333,7.75
4BcvWaFF,Moinabad Bus Stop,17.328963,78.27318,bus,RDG,Raidurg,22550.803127483996,False,False,24.0,7.333333333333333,8.0,13.25
uboghRWM,Sathsang,17.3302429901364,78.2801467174028,bus,RDG,Raidurg,21754.057364977998,False,False,24.0,4.0,7.333333333333333,11.25
kqVSR8tV,Decent Poultry,17.3312722639582,78.2931554305028,bus,RDG,Raidurg,20483.46155657957,False,False,24.0,5.333333333333333,8.333333333333334,11.5
EhiQ5Y3H,Jbiet College Amdapur X Road Bus Stop,17.3316217666677,78.297382590759,bus,RDG,Raidurg,20089.071018843413,False,False,25.0,5.333333333333333,8.666666666666666,10.75
vZHy3ifq,Himayathnagar X Road,17.3387766883806,78.3119925637218,bus,RDG,Raidurg,18048.494809721025,False,False,33.0,10.0,13.333333333333334,16.5
F5kjgZBH,Aziz Nagar X Roads,17.3441891911772,78.3246579529391,bus,RDG,Raidurg,16452.878795393863,False,False,34.0,9.666666666666666,13.0,17.25
2QgJHKxC,Osman Sagar X Rd,17.3531973109365,78.3305561031737,bus,RDG,Raidurg,14868.454794186857,False,False,34.0,9.666666666666666,12.333333333333334,15.75
b8ltroJx,Golden Farms,17.3537540685662,78.3420708721613,bus,RDG,Raidurg,14123.245991507816,False,False,34.0,9.666666666666666,12.666666666666666,14.75
kLUdNhDw,Appa Junction,17.350843348535,78.3583071739993,bus,RDG,Raidurg,13894.672414489198,False,False,36.0,9.0,13.333333333333334,16.75
BOZ6ud3G,Kalimandir,17.352451191287,78.3768691480659,bus,JCP,Jubilee Hills Checkpost,12497.434102418934,False,False,43.0,12.666666666666666,17.333333333333332,23.0
Ed7fO2rc,Peeram Cheru,17.3547365052,78.3790783231,bus,JCP,Jubilee Hills Checkpost,12054.536979792305,False,False,43.0,11.333333333333334,17.333333333333332,21.25
IJzE9Z23,Bandlaguda X Road,17.3597731196,78.3879953938,bus,JCP,Jubilee Hills Checkpost,10874.431593010142,False,False,46.0,13.0,17.333333333333332,25.0
dHUG4Xle,Suncity,17.3649131228,78.3957168515,bus,JCP,Jubilee Hills Checkpost,9806.62679658182,False,False,40.0,8.0,16.0,19.75
GFxQbpHA,Tippu Khan Bridge,17.3710977510594,78.4044692202793,bus,JCP,Jubilee Hills Checkpost,8638.254871584086,False,False,53.0,9.0,15.666666666666666,25.75
nIO17N4o,Langar House,17.374278,78.417719,bus,NAM,Nampally,7990.89525109437,False,False,57.0,8.666666666666666,16.0,23.0
9kJ7lz1Q,Langar House,17.3815830470045,78.4218370815429,bus,LKP,Lakdi-ka-pul,7039.31153431443,False,False,70.0,8.333333333333334,17.666666666666668,23.75
rBENVtQo,Nanal Nagar,17.3954877056342,78.4273249243984,bus,JR5,Road No 5 Jubilee Hills,5200.178029802787,False,False,74.0,7.333333333333333,15.666666666666666,27.5
q9jjNdnh,Mehdipatnam,17.3952073711,78.4403379976,bus,LKP,Lakdi-ka-pul,3770.4149210366754,False,False,178.0,88.66666666666667,97.66666666666667,132.75
F0sCusJT,Chandrayangutta,17.3272271949536,78.4751379345258,bus,MKL,Malakpet,7940.871429174117,False,False,36.0,24.333333333333332,21.666666666666668,15.75
sifjiJIl,Farooqnagar,17.329644,78.470292,bus,MGB,Mahatma Gandhi Bus Station,7834.0538870805885,False,False,41.0,25.333333333333332,23.333333333333332,15.5
viDlsUWZ,Engine Bowli,17.3365662237586,78.4679501198833,bus,MGB,Mahatma Gandhi Bus Station,6969.5758165318675,False,False,36.0,26.666666666666668,20.666666666666668,14.5
8YMIlyS3,Falaknuma Depot,17.3372275520799,78.4670250016503,bus,MGB,Mahatma Gandhi Bus Station,6929.586297692066,False,False,26.0,7.0,15.666666666666666,4.75
W4vA60DC,Sarojini Devi Hsptl,17.398719,78.444326,bus,KHA,Khairatabad,3059.765688190555,False,False,117.0,83.66666666666667,92.0,107.75
VKioR5jw,Nmdc,17.3989614802167,78.4495523571968,bus,LKP,Lakdi-ka-pul,2335.980697373593,False,True,115.0,77.33333333333333,89.66666666666667,107.25
m9io71dj,Masab Tank,17.4042608047588,78.4519046545028,bus,KHA,Khairatabad,1693.779378062792,False,True,66.0,65.0,65.66666666666667,74.75
qo0aajne,Pension Office,17.4074738361027,78.4510845331515,bus,KHA,Khairatabad,1535.4759073370171,False,True,53.0,59.333333333333336,62.0,72.0
0UenuDJ9,Care Hospital-Banjara Hills,17.4136267317493,78.4504334634602,bus,IRM,Erra Manzil,1301.8257891705132,False,True,9.0,2.0,3.3333333333333335,1.5
ppmUDuzH,Banjarahills Road No 7,17.4168067841173,78.4487932920455,bus,IRM,Erra Manzil,1198.9076599663765,False,True,22.0,7.666666666666667,11.666666666666666,13.0
cz4pE5ER,Gvk Mall,17.418730990367,78.4481039643287,bus,IRM,Erra Manzil,1204.1974380207776,False,True,47.0,46.666666666666664,57.0,59.75
ueRNhDvS,Nims Hospital,17.4219533608239,78.4491151571274,bus,IRM,Erra Manzil,1069.5848629036675,False,True,46.0,37.333333333333336,44.666666666666664,53.25
knSGAN1e,Punjagutta,17.4266210389731,78.4511107206344,bus,PUN,Panjagutta,346.80371453449186,True,True,54.0,39.666666666666664,57.333333333333336,59.75
V9ddvO25,Green Land,17.4307269898978,78.4559078514575,bus,PUN,Panjagutta,759.4606269827108,True,True,34.0,13.333333333333334,28.333333333333332,34.0
qRKZzfuC,Rj College,17.4350376981346,78.455286918826,bus,BEG,Begumpet,445.7765569814149,True,True,33.0,13.0,26.0,32.75
vmdvxAEq,Hps Begumpet,17.4427992466057,78.4588914737105,bus,BEG,Begumpet,831.1672604894519,False,True,49.0,17.333333333333332,32.0,60.25
sNtT8ZDC,Shyamlal Begumpet,17.444383,78.461112,bus,PRN,Prakash Nagar,687.5711843968647,True,True,52.0,15.0,25.333333333333332,59.25
GjAAZkb2,Shoppers Stop Begumpet,17.4451223191775,78.465001887711,bus,PRN,Prakash Nagar,130.03176509733373,True,True,47.0,11.333333333333334,21.0,56.75
Q6FWRb1R,Prakash Nagar Begumpet,17.4443060953376,78.4715304501541,bus,ROP,Rasoolpura,707.113611728422,True,True,53.0,8.666666666666666,19.666666666666668,56.25
joW0g0Qq,Police Lines,17.443691,78.478073,bus,ROP,Rasoolpura,239.5783594849223,True,True,56.0,5.666666666666667,18.0,52.0
Cmq2kMFs,Wesley College,17.4434719115117,78.4820526878565,bus,PAR,Paradise,601.3241628537636,True,True,50.0,3.3333333333333335,16.666666666666668,47.5
PwJCFyTq,Paradise,17.4434949367817,78.4866499897696,bus,PAR,Paradise,58.461324016560326,True,True,48.0,1.3333333333333333,17.666666666666668,42.5
KIkHjkpt,Plaza,17.4433030523969,78.4906572251304,bus,PAR,Paradise,633.7504024139429,True,True,114.0,5.333333333333333,32.0,58.5
X0STVNy1,Patny,17.4431827588464,78.496246933937,bus,PRG,Parade Ground,175.30957448852055,True,True,174.0,3.3333333333333335,46.0,104.75
QeBJG7EM,Secunderabad,17.4429473253,78.5037088394165,bus,PRG,Parade Ground,896.1049256944168,False,True,53.0,37.0,48.666666666666664,59.0
TaPAXfJn,Sangeeth-Isckon,17.4411676303389,78.5056360089039,bus,SEC_E,Secunderabad East,814.9318415406908,False,True,44.0,0.3333333333333333,10.0,20.5
whMygxc9,Secunderabad,17.4371305954537,78.5051479719086,bus,SEC_E,Secunderabad East,215.8592487922376,True,True,128.0,70.33333333333333,78.66666666666667,134.75
G7Crwnuu,Chilkalguda,17.433305252319,78.5067719214351,bus,SEC_E,Secunderabad East,406.729023588082,True,True,151.0,108.33333333333333,106.66666666666667,143.0
HxjRAjhe,Alugadda Bhavi,17.435588,78.514285,bus,MET,Mettuguda,759.163335444863,True,True,162.0,110.66666666666667,108.0,147.25
UXUFKwWS,Mettuguda,17.434563,78.520907,bus,MET,Mettuguda,238.74579509070406,True,True,125.0,78.33333333333333,84.0,110.75
are2VdTm,Tarnaka X Road,17.4258059447663,78.5327196118636,bus,TAR,Tarnaka,459.56026976637423,True,True,111.0,69.0,83.66666666666667,105.25
8w1CBdo1,Habsiguda,17.4212973761853,78.5397758335197,bus,HSG,Habsiguda,200.43233107142538,True,True,112.0,65.66666666666667,88.66666666666667,106.25
jtlvGReR,Hmt Nagar Nacharam,17.42443969,78.54731418,bus,HSG,Habsiguda,1161.061429233915,False,True,33.0,4.333333333333333,20.333333333333332,25.5
vuGTfEKr,Nacharam,17.4280821729076,78.5509425419988,bus,HSG,Habsiguda,1902.5920655230755,False,True,26.0,3.3333333333333335,16.333333333333332,21.0
2b3B8JFF,Esi Hospital Nacharam,17.43094713,78.55324522,bus,HSG,Habsiguda,2430.9817080282937,False,True,19.0,3.3333333333333335,8.333333333333334,12.25
hjFi7eQB,Nacharam X Road,17.4336356264874,78.5544589149426,bus,HSG,Habsiguda,2833.648414609304,False,True,29.0,9.333333333333334,26.0,26.0
U3ikAqGd,Delhi Tubes Nacharam,17.438300227071,78.5583394443616,bus,HSG,Habsiguda,3721.981794957685,False,False,34.0,11.0,25.666666666666668,27.75
LwrbPeVu,Janapriya - Mallapur,17.4417732177453,78.5652816487785,bus,HSG,Habsiguda,4797.141311414497,False,False,27.0,5.0,22.0,25.5
S6LmWE5N,Mallapur,17.4454882815445,78.5674059391021,bus,HSG,Habsiguda,5400.1522258909035,False,False,30.0,3.0,20.666666666666668,26.75
YMEKiiCq,Noma Function Hall Nacharam,17.4471950161069,78.5719978809356,bus,HSG,Habsiguda,6055.482701350102,False,False,29.0,1.0,18.0,24.75
ko9Sd2Em,Nfc X Roads,17.4484705786562,78.5757945477962,bus,NGR,NGRI,6569.489539487634,False,False,17.0,1.6666666666666667,5.666666666666667,8.0
pLgbAwvD,Ashoknagar-Mallapur,17.4500045510484,78.5808290556728,bus,NGR,NGRI,7221.176994120896,False,False,20.0,1.0,16.0,16.25
9mgpyHL4,Hcl,17.4555544617915,78.5817369951529,bus,NGR,NGRI,7928.643549915213,False,False,23.0,2.3333333333333335,8.0,10.0
giCRzBi8,Ecil Factory,17.4674059699133,78.5738861579233,bus,HSG,Habsiguda,8526.999561935283,False,False,28.0,23.0,21.0,23.75
4wFW2Us9,Ecil X Roads,17.4720598355094,78.5710778819624,bus,TAR,Tarnaka,8899.410072576766,False,False,14.0,13.333333333333334,11.333333333333334,11.25
Q2XxpKE2,Kushaiguda,17.480318357777,78.5750153660774,bus,TAR,Tarnaka,10206.05393887208,False,False,59.0,33.666666666666664,35.0,52.5
3a2eLPl2,Nagarjuna Nagar Clny,17.4801444,78.58167026,bus,HSG,Habsiguda,10730.592543295132,False,False,41.0,18.666666666666668,17.666666666666668,24.5
Y7DNcZgJ,Chakripuram,17.4787758892324,78.5861384868621,bus,HSG,Habsiguda,10931.40526021836,False,False,9.0,2.0,1.0,0.25
ltOoIRPh,Cherlapally Water Tank,17.4712836646728,78.5969675704837,bus,HSG,Habsiguda,11129.801742362186,False,False,7.0,1.0,1.6666666666666667,1.0
GTRQRJwL,Cherlapally Railway Station,17.459040645971,78.6043882479733,bus,STD,Stadium,10551.113817195028,False,False,39.0,10.333333333333334,13.666666666666666,23.75
suDhrwkI,Cherlapally,17.4632852440669,78.6114545023148,bus,STD,Stadium,11710.475899978948,False,False,39.0,23.333333333333332,25.0,38.5
noE4riD7,Cherlapally Railway Station,17.4593028966669,78.6047127808248,bus,STD,Stadium,10611.534818060507,False,False,23.0,13.333333333333334,15.0,12.25
0NDQJIGP,Chakripuram,17.4792003646718,78.5854679346084,bus,HSG,Habsiguda,10925.281309311646,False,False,44.0,6.0,16.333333333333332,25.0
fUjweVGF,Nagarjuna Nagar Clny,17.47988472,78.58190194,bus,HSG,Habsiguda,10716.55954932741,False,False,35.0,4.0,14.333333333333334,24.75
vQw0DmF3,Kushaiguda,17.48034395,78.57518468,bus,TAR,Tarnaka,10224.397055191483,False,False,50.0,8.0,16.666666666666668,31.0
hTYT4HDY,Ecil Factory,17.4672473910286,78.5738915205002,bus,HSG,Habsiguda,8507.820674273136,False,False,19.0,4.0,9.666666666666666,12.75
L9yKLGu1,Hcl X Roads,17.4552577806504,78.5813695192337,bus,NGR,NGRI,7860.826864508793,False,False,19.0,3.6666666666666665,12.0,12.75
x7w566Y0,Delhi Tubes Nacharam,17.4380993820983,78.558230994496,bus,HSG,Habsiguda,3689.474468702609,False,False,33.0,21.666666666666668,34.666666666666664,37.75
iicT2HB0,Nacharam X Road,17.4334665158339,78.5552099206196,bus,HSG,Habsiguda,2893.1523964153253,False,True,7.0,5.0,10.0,11.25
KXSa7N9r,Hmt Nagar Nacharam,17.4240287902412,78.5471713542938,bus,HSG,Habsiguda,1110.966972954201,False,True,34.0,10.0,23.333333333333332,26.5
Vu61jLWF,Habsiguda,17.421528,78.538962,bus,HSG,Habsiguda,303.9634576388343,True,True,127.0,12.333333333333334,66.0,84.25
jyBSJxcj,Tarnaka X Road,17.4257061390095,78.5322274249487,bus,TAR,Tarnaka,410.78106532125406,True,True,147.0,16.333333333333332,62.0,85.25
7kbuoXmo,Mettuguda,17.4362017151634,78.5206600651144,bus,MET,Mettuguda,185.96872825391844,True,True,34.0,1.6666666666666667,12.0,26.25
V2FZzv9s,Alugadda Bhavi,17.4353141310885,78.5143840348896,bus,MET,Mettuguda,745.5268286874482,True,True,171.0,13.333333333333334,31.333333333333332,99.25
CFbXbiQw,Chilkalguda,17.4330621481197,78.5063829527358,bus,SEC_E,Secunderabad East,418.4549935799367,True,True,117.0,9.0,15.333333333333334,61.0
u3bvsFOc,Secunderabad,17.434259,78.501577,bus,SCR,Secunderabad West,303.1766068479034,True,True,373.0,250.0,292.6666666666667,441.0
ok41NPb5,Patny,17.4429600750994,78.4966734051704,bus,PRG,Parade Ground,119.36085792034184,True,True,197.0,156.0,159.0,232.5
YPoQZzru,Plaza,17.4432046216649,78.4901194205191,bus,PAR,Paradise,557.4915302484768,True,True,63.0,67.33333333333333,69.0,108.25
GVLWcO80,Paradise,17.4431409505787,78.4862176340182,bus,PAR,Paradise,48.850907663119955,True,True,49.0,51.333333333333336,44.333333333333336,76.25
C5RkuVFZ,Wesley College,17.443347223031,78.4819314419627,bus,PAR,Paradise,618.9787531843742,True,True,45.0,51.0,41.333333333333336,74.0
jwo9ywmN,Police Lines,17.4436510619643,78.474993109703,bus,ROP,Rasoolpura,202.7101139279038,True,True,54.0,52.333333333333336,43.666666666666664,75.0
b6Ed1APh,Prakash Nagar Begumpet,17.4439918370554,78.471393585205,bus,ROP,Rasoolpura,721.336729089573,True,True,46.0,45.666666666666664,38.333333333333336,64.75
xjTl0c9a,Shoppers Stop Begumpet,17.4448396158677,78.4649043157696,bus,PRN,Prakash Nagar,139.45762421467893,True,True,48.0,49.0,42.0,76.0
0QXQxf3w,Shyamlal Begumpet,17.4442096195101,78.4617282450199,bus,PRN,Prakash Nagar,603.5811744723071,True,True,49.0,46.666666666666664,43.666666666666664,75.5
vICEAYpg,Hps Begumpet,17.442554874152,78.4592780470848,bus,BEG,Begumpet,818.0799699829245,False,True,49.0,45.333333333333336,44.0,76.0
KgDSpIOK,Rj College,17.4349994016809,78.4555792589056,bus,BEG,Begumpet,430.1245532354955,True,True,35.0,19.666666666666668,18.666666666666668,33.5
AWE6D07a,Punjagutta,17.4264522459602,78.4514111280441,bus,PUN,Panjagutta,377.0399351930709,True,True,50.0,24.333333333333332,38.333333333333336,63.25
2GQGAQJB,Nims Hospital,17.4214592438495,78.4489622712135,bus,IRM,Erra Manzil,1075.8379214083882,False,True,42.0,15.333333333333334,25.0,37.75
MCux42LE,Gvk Mall,17.4179480437937,78.4490185992533,bus,IRM,Erra Manzil,1105.8245881020123,False,True,42.0,11.0,23.666666666666668,40.25
sIoTCd6R,Banjarahills Road No 7,17.4163318319705,78.4489354512987,bus,IRM,Erra Manzil,1212.9489823045565,False,True,14.0,2.3333333333333335,1.0,8.5
A3gmwwj9,Care Hospital-Banjara Hills,17.413632810042,78.4506118297576,bus,IRM,Erra Manzil,1284.583286685378,False,True,48.0,13.333333333333334,24.0,45.75
0EWpgffm,Pension Office,17.4078848864357,78.4511589933682,bus,KHA,Khairatabad,1501.7231350352629,False,True,51.0,8.666666666666666,27.0,48.0
wPpbiQd0,Masab Tank,17.4041635781713,78.4522452950477,bus,KHA,Khairatabad,1666.6589142771143,False,True,64.0,9.0,23.666666666666668,48.0
xLkxr76E,Nmdc,17.3987272168,78.4495738149,bus,LKP,Lakdi-ka-pul,2344.706020564822,False,True,110.0,25.0,60.666666666666664,92.25
gV9iNXAG,Sarojini Devi Hospital,17.3985430377386,78.4444668889045,bus,LKP,Lakdi-ka-pul,3051.7253319233305,False,False,111.0,17.333333333333332,65.33333333333333,86.25
BJCimp4m,Mehdipatnam,17.3944638148,78.4394866005,bus,LKP,Lakdi-ka-pul,3924.2892125068315,False,False,39.0,8.666666666666666,9.0,7.25
2ZWzuUTZ,Tippu Khan Bridge,17.3733944639891,78.4044027095116,bus,JCP,Jubilee Hills Checkpost,8300.693826786877,False,False,25.0,9.333333333333334,10.0,9.5
jsSYaRZ9,Ramdev Guda,17.3752373284242,78.3960396322129,bus,JCP,Jubilee Hills Checkpost,8313.421871679982,False,False,22.0,9.333333333333334,10.0,7.25
n1MXMQMq,Age Bar,17.3765639438362,78.3858183770027,bus,JCP,Jubilee Hills Checkpost,8695.25886843318,False,False,20.0,8.666666666666666,9.333333333333334,8.0
Pm13hpJV,Ibrahim Bagh,17.3767149716043,78.3819177746772,bus,PED,Peddamma Gudi,8912.214784498836,False,False,18.0,9.0,9.333333333333334,7.25
DJ1vRbAq,Taramathi,17.3767885598025,78.378913701413,bus,PED,Peddamma Gudi,9094.52449295029,False,False,22.0,8.0,8.0,10.0
4gvSfGeB,Neknapur,17.3789451805492,78.3699148901551,bus,RDG,Raidurg,9484.1650091792,False,False,18.0,8.0,7.333333333333333,9.0
kPZTFaTS,Hanuman Temple,17.381,78.367,bus,RDG,Raidurg,9235.962990037622,False,False,15.0,8.0,7.333333333333333,8.5
AmuowBqz,Narsinghi,17.3842313438346,78.3614210039377,bus,RDG,Raidurg,8928.19112295282,False,False,12.0,3.6666666666666665,0.0,2.25
iGveCYEN,Kokapet X Rd,17.387619,78.341096,bus,RDG,Raidurg,9640.876096136853,False,False,15.0,3.0,7.333333333333333,9.0
7SoNNXKp,Grape Garden,17.3868226890788,78.3380287882804,bus,RDG,Raidurg,9982.621963249012,False,False,13.0,2.0,8.0,8.25
sFWHBI1O,Gandipet X Road,17.385,78.331,bus,RDG,Raidurg,10797.413274008779,False,False,13.0,1.6666666666666667,8.666666666666666,7.5
fh2ezkIf,Cbit,17.3935355900935,78.3202242851257,bus,RDG,Raidurg,10925.460347867089,False,False,13.0,1.3333333333333333,9.0,8.25
R37p0OO9,Khanapur,17.397,78.302,bus,RDG,Raidurg,12717.954234245208,False,False,12.0,0.6666666666666666,7.666666666666667,8.0
pqdPrHsX,Miyakhan Gadda,17.4049339244627,78.2849559192181,bus,RDG,Raidurg,14351.814390638061,False,False,11.0,0.0,7.666666666666667,7.0
ouE3tJiF,Janwada X Road,17.4127373715148,78.2667651795391,bus,RDG,Raidurg,16441.978276167036,False,False,11.0,0.0,7.666666666666667,5.75
VRc2v6Sq,Kollur X Road,17.4177739930999,78.2499048122928,bus,RDG,Raidurg,18624.382939308947,False,False,11.0,0.0,5.666666666666667,6.5
B2E1U0Po,Dontapally,17.4185558406518,78.224317859737,bus,RDG,Raidurg,22219.195500550384,False,False,7.0,0.0,2.0,7.25
Bots9uZJ,Indian Business School ( Ibs ),17.418925644352,78.2169377809786,bus,RDG,Raidurg,23257.444766539957,False,False,8.0,0.0,1.3333333333333333,6.5
bSu8VLLo,Pilli Gundla Dontapalli,17.422,78.21,bus,RDG,Raidurg,24181.280382756973,False,False,6.0,0.0,0.3333333333333333,6.0
1EbmKtfx,Mokila Bus Stop,17.4319921696537,78.1897559389472,bus,RDG,Raidurg,26942.017705210706,False,False,8.0,0.3333333333333333,0.3333333333333333,7.25
pzXN1H4j,Bulkapur,17.444802512633,78.1587874889373,bus,RDG,Raidurg,31346.76578343869,False,False,8.0,0.3333333333333333,0.3333333333333333,8.0
4XkSMGtG,Bhanur X Road,17.453,78.144,bus,MYP,Miyapur,33499.84153401112,False,False,7.0,0.6666666666666666,3.6666666666666665,13.75
UCQMGasG,Shankarpally Bus Station,17.45583,78.13135,bus,MYP,Miyapur,35206.339411976645,False,False,11.0,13.666666666666666,16.333333333333332,27.25
0WxpWnzH,Bhanur X Road,17.4533347883859,78.1441198277818,bus,MYP,Miyapur,33473.24909210331,False,False,8.0,11.333333333333334,10.0,13.5
hiYDONWZ,Bulkapur,17.444894630995,78.1588867306709,bus,RDG,Raidurg,31332.703423680996,False,False,8.0,8.0,6.0,7.5
GzMVZaMe,Mokila,17.433466481256,78.1868728995323,bus,RDG,Raidurg,27343.88103087454,False,False,9.0,8.0,6.333333333333333,8.5
oTBBk3lA,Pilli Gundla Dontapalli,17.4223140144901,78.2102429843117,bus,RDG,Raidurg,24140.886337835134,False,False,7.0,5.666666666666667,6.0,8.25
lk3b2qDU,Indian Business School ( Ibs ),17.4187599379367,78.2177457959175,bus,RDG,Raidurg,23146.482382713846,False,False,9.0,7.0,5.666666666666667,9.5
Io40sLXx,Dontapally,17.4186799529953,78.2239329821414,bus,RDG,Raidurg,22270.823989253175,False,False,10.0,5.333333333333333,6.0,9.5
ytvCxXFb,Kollur X Road,17.4177432815047,78.2507604383993,bus,RDG,Raidurg,18504.845333941157,False,False,12.0,4.666666666666667,7.666666666666667,9.5
ev6wgDXG,Janwada X Road,17.4128141525972,78.2668751490421,bus,RDG,Raidurg,16423.708584594282,False,False,12.0,4.666666666666667,9.333333333333334,9.25
oFhCBRcF,Miyakhan Gadda,17.405,78.286,bus,RDG,Raidurg,14209.855156219173,False,False,12.0,4.333333333333333,9.333333333333334,9.25
hYWlKusT,Khanapur,17.3972965174127,78.3019825817715,bus,RDG,Raidurg,12696.67968378077,False,False,13.0,4.0,8.666666666666666,10.25
3Z4AuAHK,Cbit,17.3936748829299,78.3202672041119,bus,RDG,Raidurg,10907.044211951665,False,False,13.0,1.3333333333333333,8.333333333333334,8.0
SRmJE3Ta,Gandipet X Road,17.386,78.331,bus,RDG,Raidurg,10679.815644989558,False,False,13.0,1.6666666666666667,9.0,7.5
bakKI0au,Grape Garden,17.387,78.338,bus,RDG,Raidurg,9963.061281003349,False,False,13.0,1.0,6.666666666666667,8.5
EhRIzJx4,Kokapet X Rd,17.388022,78.341466,bus,RDG,Raidurg,9561.533747147767,False,False,11.0,0.6666666666666666,5.0,8.75
Pm5Rl4ZJ,Manchirevulla X Road,17.3854635080172,78.355480581522,bus,RDG,Raidurg,9008.575360119354,False,False,18.0,4.0,8.666666666666666,10.5
1SdlIEjc,Hanuman Temple,17.3802442663754,78.368377979902,bus,RDG,Raidurg,9318.587704350692,False,False,16.0,0.6666666666666666,5.0,7.75
JXAl0tDW,Neknapur,17.379,78.37,bus,RDG,Raidurg,9474.67891472911,False,False,19.0,0.6666666666666666,4.0,10.75
YEipNxZK,Taramathi,17.3768986343496,78.3789338177856,bus,PED,Peddamma Gudi,9078.614181378582,False,False,22.0,0.6666666666666666,5.666666666666667,12.25
mFHd1TsQ,Ibrahim Bagh,17.3768448816577,78.3818561167643,bus,PED,Peddamma Gudi,8898.42946825337,False,False,19.0,0.6666666666666666,1.3333333333333333,9.75
YLvpA2j1,Age Bar,17.3766631360547,78.3858586102885,bus,JCP,Jubilee Hills Checkpost,8679.436730646272,False,False,23.0,0.6666666666666666,3.6666666666666665,11.75
PlLbsGM1,Ramdev Guda,17.375122190463,78.397021293432,bus,JCP,Jubilee Hills Checkpost,8287.991337834164,False,False,25.0,3.0,4.666666666666667,11.5
JfIOK0oA,Tippu Khan Bridge,17.3733584170628,78.4051135171454,bus,JCP,Jubilee Hills Checkpost,8290.206564779555,False,False,22.0,2.6666666666666665,3.0,8.25
uA8YdKKq,Manchirevulla X Road,17.3853137697208,78.3556649838147,bus,RDG,Raidurg,9020.476722661664,False,False,24.0,3.6666666666666665,7.0,14.0
VXQBI5es,Narsinghi,17.3856528804499,78.3544895052909,bus,RDG,Raidurg,9032.378712372789,False,False,12.0,1.0,3.3333333333333335,1.5
pJbQlUdV,Hayathnagar Bus Depot,17.3265250538277,78.5932409790165,bus,LBN,L. B. Nagar,7378.41236422513,False,False,4.0,4.0,23.0,8.25
2uOlQMbc,Hayathnagar Bus Depot,17.3301150304273,78.5943728684858,bus,LBN,L. B. Nagar,7288.8124076012755,False,False,92.0,20.333333333333332,48.0,43.0
9TGZiwiy,Rtc Colony-Hyt,17.328654,78.598786,bus,LBN,L. B. Nagar,7956.74134110971,False,False,86.0,9.333333333333334,30.333333333333332,27.25
BsjNAyiG,Hayathnagar Bs,17.327319938482,78.6048933128708,bus,LBN,L. B. Nagar,8841.961224226283,False,False,106.0,71.0,130.66666666666666,94.5
qQ2eggZ4,Hayathnagar Bs,17.32707761,78.60373244,bus,LBN,L. B. Nagar,8702.208405216184,False,False,81.0,41.333333333333336,75.0,79.75
jIGnqtq6,Rtc Colony Upl,17.328056,78.599494,bus,LBN,L. B. Nagar,8085.677009389021,False,False,83.0,51.333333333333336,95.33333333333333,75.0
g3CVmJk7,Hayathnagar Bus Depot,17.3299921777276,78.5939329772356,bus,LBN,L. B. Nagar,7238.6211171069,False,False,92.0,53.666666666666664,96.33333333333333,85.25
nib1nnsj,Bhagyalatha (Arunodaya),17.3323169413533,78.5891264677047,bus,LBN,L. B. Nagar,6466.88120938446,False,False,7.0,10.666666666666666,6.666666666666667,9.5
SeOTAz0T,Shanthi Nagar-Vanastalipuram,17.3282061281865,78.5875385978715,bus,LBN,L. B. Nagar,6540.283355892184,False,False,11.0,13.666666666666666,6.333333333333333,11.0
3UkEBTxG,Sharada Nagar-Hayathnagar,17.3281946225344,78.5850763308648,bus,LBN,L. B. Nagar,6236.412746345034,False,False,8.0,11.666666666666666,6.333333333333333,11.0
9Ezr2Jwk,Subhadra-Kamala Nagar,17.3288295776406,78.5834187047591,bus,LBN,L. B. Nagar,5983.893736152114,False,False,11.0,12.0,6.333333333333333,11.25
tSGCiQav,Kamala Nagar-Vanasthalipuram,17.3298256380015,78.5790359981579,bus,LBN,L. B. Nagar,5374.095554713095,False,False,9.0,11.333333333333334,5.666666666666667,12.0
IAGvk4V9,Raithu Bazar-Vsp,17.3304986956384,78.5751574884148,bus,LBN,L. B. Nagar,4860.8792810467585,False,False,17.0,15.0,6.333333333333333,12.0
kQF1TB5X,Vanasthalipuram Complex,17.3307192035374,78.5729661588087,bus,LBN,L. B. Nagar,4591.23384479782,False,False,13.0,14.333333333333334,6.0,12.0
3CpJuoZ6,Ganesh Temple-Vanastalipuram,17.3312415627581,78.5691869252743,bus,LBN,L. B. Nagar,4127.393599751201,False,False,25.0,33.666666666666664,29.0,36.25
MjEKXkAz,Chintalkunta Bus Stop,17.340501,78.563096,bus,LBN,L. B. Nagar,2585.3381883786305,False,True,102.0,79.33333333333333,68.33333333333333,78.5
lyF23GGb,Chintalkunta Checkpost,17.3426277067675,78.5564276074592,bus,LBN,L. B. Nagar,1627.3398437856754,False,True,102.0,79.66666666666667,71.33333333333333,77.75
jNMgv2Al,Lb Nagar,17.3470975873752,78.5512214933717,bus,LBN,L. B. Nagar,624.9044632906532,True,True,83.0,41.333333333333336,33.0,57.5
Ap1EukzU,Kamineni Hospital,17.3533656317548,78.5555738449488,bus,LBN,L. B. Nagar,1215.4103530190882,False,True,63.0,35.666666666666664,28.666666666666668,49.0
buDaArKj,Rajeev Gandhi Nagar,17.3599187220688,78.5575877147417,bus,VOM,Victoria Memorial,1977.1472382002514,False,True,36.0,29.333333333333332,24.0,36.25
qPtExEEi,Alkapuri X Road,17.365287,78.556949,bus,VOM,Victoria Memorial,1933.3471504483596,False,True,77.0,33.333333333333336,31.0,51.5
BCMwFXGv,Snehapuri Colony,17.3691064112559,78.5572162315471,bus,VOM,Victoria Memorial,2189.440921423911,False,True,60.0,26.666666666666668,24.333333333333332,38.75
AnLTMfwA,Nagole X Rds,17.3767810792273,78.5577533319177,bus,NAG,Nagole,2096.343014260863,False,True,87.0,41.0,46.0,57.25
igXYuJJL,Nagole Metro Station,17.3905264866278,78.5587478043404,bus,NAG,Nagole,37.68876122257843,True,True,87.0,36.0,51.0,56.25
qbtDyPmY,Uppal X Road,17.4020398586715,78.5595762357115,bus,UPL,Uppal,307.7045666261969,True,True,74.0,15.0,45.666666666666664,58.75
HRc9q9cv,Survey Of India,17.405683,78.555518,bus,STD,Stadium,314.3763321808592,True,True,96.0,15.666666666666666,54.333333333333336,67.0
h14pP8Q5,Ngri,17.4154051662213,78.5453817445992,bus,NGR,NGRI,161.7911425200389,True,True,101.0,12.333333333333334,54.666666666666664,65.5
B9wleFxF,Railway Degree Collge,17.4286299145881,78.5273122787475,bus,TAR,Tarnaka,425.6188756905868,True,True,95.0,5.666666666666667,26.333333333333332,52.25
fDQ48G2W,Mettuguda,17.434189,78.520796,bus,MET,Mettuguda,265.13893563330555,True,True,137.0,7.0,29.666666666666668,68.75
gVRyRzSN,Jbs,17.4476122175084,78.4975797098984,bus,JBS,JBS Parade Ground,468.5806992764377,True,True,94.0,58.666666666666664,62.333333333333336,79.5
ajXH07Oj,Ngri,17.4154662609906,78.5457455222495,bus,NGR,NGRI,127.6358192547315,True,True,92.0,61.0,75.33333333333333,81.5
SbVE8Ev9,Survey Of India,17.406015994449,78.5556103944187,bus,STD,Stadium,284.1608674485655,True,True,90.0,54.0,76.0,83.0
bHfuhRVs,Uppal X Roads,17.3999353441785,78.5602819919586,bus,UPL,Uppal,23.89459500187166,True,True,70.0,86.66666666666667,96.66666666666667,109.0
5YoLyTS1,Nagole Metro Station,17.3905571984108,78.5589248073744,bus,NAG,Nagole,34.821199236540664,True,True,71.0,83.0,93.33333333333333,108.25
sJVjEk53,Nagole X Road,17.3762215709702,78.5580436887308,bus,NAG,Nagole,2177.222976954495,False,True,70.0,68.66666666666667,86.0,96.75
UsvPMDtj,Snehapuri Colony,17.3688363748086,78.5573905846173,bus,VOM,Victoria Memorial,2191.723470249548,False,True,53.0,49.666666666666664,71.66666666666667,80.5
j5uk5YHU,Alkapuri X Road,17.3640224417629,78.5573127975608,bus,VOM,Victoria Memorial,1943.4883746017808,False,True,67.0,51.333333333333336,84.0,93.5
C7MKjOpe,Rajeev Gandhi Nagar,17.3596592052439,78.5578143596649,bus,VOM,Victoria Memorial,2015.2932731128135,False,True,26.0,1.6666666666666667,27.0,33.5
KEmdPCGs,Kamineni Hospital,17.3524400960622,78.5556759154176,bus,LBN,L. B. Nagar,1176.0636469926956,False,True,60.0,39.0,65.66666666666667,81.5
3GrSvtyq,Lb Nagar,17.3465420724352,78.5514588770728,bus,LBN,L. B. Nagar,706.3138122178474,True,True,109.0,23.666666666666668,55.666666666666664,91.75
pXxlBybY,Chintalkunta Checkpost,17.342,78.558,bus,LBN,L. B. Nagar,1860.2203110048463,False,True,92.0,5.333333333333333,34.0,73.5
HqApOlBt,Chintalkunta Bus Stop,17.3408838175952,78.5620978486596,bus,LBN,L. B. Nagar,2434.0241399179104,False,True,94.0,5.666666666666667,29.333333333333332,72.25
nsLzkHjZ,Panama Godowns,17.3384029534039,78.568639755249,bus,LBN,L. B. Nagar,3428.4733179509017,False,False,100.0,19.0,38.666666666666664,75.0
2vgzCngU,Ganesh Temple-Vanasthalipuram,17.3318022966686,78.5692486174845,bus,LBN,L. B. Nagar,4078.028993550393,False,False,11.0,0.0,0.3333333333333333,10.0
AVqMsMvj,Vanasthalipuram,17.3313606228412,78.572897426784,bus,LBN,L. B. Nagar,4524.332065110866,False,False,11.0,0.0,0.0,8.0
2NKuNLpA,Raithu Bazar-Vsp,17.3306053070048,78.5756242213434,bus,LBN,L. B. Nagar,4905.534522658838,False,False,10.0,0.0,0.0,6.0
nkt9SkEX,Kamala Nagar-Vanasthalipuram,17.329893438449,78.578940779543,bus,LBN,L. B. Nagar,5357.098027839885,False,False,7.0,0.0,0.0,4.5
hnG4z3o9,Subhadra-Kamala Nagar,17.3289129220628,78.5833410069496,bus,LBN,L. B. Nagar,5967.861494923732,False,False,9.0,0.0,0.0,2.5
NiwiEx9q,Sharada Nagar-Hayathnagar,17.3294556456237,78.5856315493583,bus,LBN,L. B. Nagar,6210.01786086066,False,False,6.0,0.0,0.0,0.0
jhd9QeGO,Shanthi Nagar-Vanastalipuram,17.3293186677125,78.587535915363,bus,LBN,L. B. Nagar,6459.304480960822,False,False,8.0,0.0,0.0,0.0
DQGu7xHQ,Bhagyalatha,17.332940228836,78.5892717767686,bus,LBN,L. B. Nagar,6448.876190544404,False,False,93.0,15.0,27.0,44.75
CFHNbG2J,Chilkur Balaji Temple,17.3571052314241,78.2999092340469,bus,RDG,Raidurg,16856.986231423827,False,False,6.0,6.0,11.0,10.5
L8kbKj1j,Residential School-Chilkur Balaji,17.3477863333148,78.2999843358993,bus,RDG,Raidurg,17922.843343047138,False,False,5.0,5.666666666666667,6.0,4.75
fT0d50lx,Himayathnagar Village,17.3425982736606,78.3089503281479,bus,RDG,Raidurg,17799.05812299017,False,False,11.0,5.666666666666667,6.333333333333333,5.25
hsnDsySD,Care Hospital-Banjara Hills,17.4136267317493,78.4504334634602,bus,IRM,Erra Manzil,1301.8257891705132,False,True,47.0,49.666666666666664,52.666666666666664,62.25
DlkTzhBT,Indra Gandhi Statue-Secunderabad,17.437418,78.504398,bus,SEC_E,Secunderabad East,296.421260947459,True,True,42.0,1.0,6.333333333333333,32.0
hAc9AQA9,Mehdipatnam,17.3939153245566,78.442412312793,bus,LKP,Lakdi-ka-pul,3570.6498814493602,False,False,20.0,0.0,5.333333333333333,8.75
HdUjSU7J,Nfc North Gate,17.4570743399049,78.5789474844932,bus,HSG,Habsiguda,7795.343887726955,False,False,5.0,0.3333333333333333,0.0,0.0
PRepdcnz,Ecil X Roads,17.4725334178467,78.570063162346,bus,TAR,Tarnaka,8857.440092548863,False,False,105.0,90.0,104.0,166.5
65IwqrLo,Mahaveer Hospital,17.4029094212,78.4582774841,bus,LKP,Lakdi-ka-pul,971.6801751758272,False,True,82.0,37.666666666666664,47.0,61.0
SBmkG9NJ,Bjr College,17.4048570944751,78.4610563497947,bus,LKP,Lakdi-ka-pul,571.0737345363208,True,True,39.0,6.333333333333333,14.333333333333334,24.25
Gm0WIrE8,Lakdikapool,17.4061828843,78.4631116672,bus,LKP,Lakdi-ka-pul,414.07731784250257,True,True,127.0,33.0,53.666666666666664,89.0
Dg7VAzf3,Telephone Bhavan,17.4071861215,78.4661719875,bus,LKP,Lakdi-ka-pul,501.7576766426322,True,True,59.0,23.333333333333332,36.0,45.25
ZNUKsMix,Secretariat Lic Building,17.408117,78.471823,bus,LKP,Lakdi-ka-pul,1159.908433617616,False,True,79.0,22.666666666666668,39.0,46.0
NYWivGae,Tank Bund,17.422315,78.485023,bus,MSH,Musheerabad,2181.6196713448753,False,True,68.0,8.0,27.333333333333332,45.0
iSB14TRl,Boats Club,17.4264354917431,78.4866365830797,bus,SCR,Secunderabad West,2151.6456785416553,False,True,43.0,6.666666666666667,12.666666666666666,18.0
v8JMo7Nn,Bible House,17.4306413572339,78.4922450951348,bus,SCR,Secunderabad West,1145.655410303724,False,True,46.0,3.3333333333333335,12.0,39.25
noFGCQkJ,Bata,17.4360049911766,78.4937041938012,bus,SCR,Secunderabad West,896.7936051441557,False,True,62.0,7.0,22.333333333333332,50.25
xgJ1CUA5,Patny Taj Tristar,17.4405291830956,78.4950453042984,bus,PRG,Parade Ground,528.787418340611,True,True,13.0,0.6666666666666666,4.0,8.75
iBWNwmWj,Clock Tower Secunderabad,17.4415168635684,78.4983979845083,bus,PRG,Parade Ground,283.9916449587306,True,True,45.0,9.0,19.0,26.75
AbZzpwXc,Sangeeth,17.4411228403116,78.5033601529844,bus,SEC_E,Secunderabad East,862.3279813085907,False,True,62.0,1.6666666666666667,7.0,38.75
UlSL8FAc,Clock Tower Secunderabad,17.4405957478608,78.4970569778625,bus,PRG,Parade Ground,392.90030460669954,True,True,51.0,41.666666666666664,45.666666666666664,51.0
9zSxAeIG,Patny Taj Tristar,17.4399842151587,78.495337665081,bus,PRG,Parade Ground,568.9870647029119,True,True,12.0,6.0,12.666666666666666,8.0
HJTDI9P3,Bata,17.4361175891792,78.4938570857048,bus,SCR,Secunderabad West,882.8806111154609,False,True,54.0,40.0,50.0,47.5
Ci8Yl6FR,Bible House,17.4307590239036,78.4924649817205,bus,SCR,Secunderabad West,1109.6612522659682,False,True,47.0,30.0,40.666666666666664,41.25
rzCMv7kP,Boats Club,17.426413746913,78.4867412107602,bus,SCR,Secunderabad West,2140.4377976123988,False,True,61.0,32.0,41.333333333333336,45.25
UnvVAGqJ,Tankbund,17.422205,78.48515,bus,MSH,Musheerabad,2159.2804296057766,False,True,60.0,31.666666666666668,40.666666666666664,45.5
WPJcfJaq,Secretariat Lic Building,17.40765263199,78.4714147076009,bus,LKP,Lakdi-ka-pul,1073.969201636584,False,True,60.0,25.666666666666668,24.333333333333332,45.75
nV1IXc4T,Birla Mandir,17.4059180142,78.4674064815,bus,LKP,Lakdi-ka-pul,451.00647142593175,True,True,76.0,24.666666666666668,31.0,58.75
9MesXC3c,Mahaveer Hospital,17.4027609783,78.4586075988,bus,LKP,Lakdi-ka-pul,929.3886628994303,False,True,80.0,50.0,54.333333333333336,86.5
zb4YFQB5,Himayathnagar X Road,17.33931347,78.31119899,bus,RDG,Raidurg,18039.49272098104,False,False,8.0,0.3333333333333333,7.0,7.0
idtsF5sQ,Himayathnagar Village,17.342901421144,78.3082163492706,bus,RDG,Raidurg,17819.56793642672,False,False,8.0,0.0,7.0,6.5
lFhBU2uw,Residential School-Chilkur Balaji,17.3476583231755,78.299925327301,bus,RDG,Raidurg,17943.123669652294,False,False,3.0,0.0,5.333333333333333,6.0
UBeedL9T,Gitam University,17.5498761143066,78.1641904250029,bus,MYP,Miyapur,30998.96444566583,False,False,24.0,20.666666666666668,3.0,2.75
eOVTjUWY,Rudhraram,17.5638035595563,78.1667164340615,bus,MYP,Miyapur,31254.29036434396,False,False,18.0,17.0,0.3333333333333333,0.5
VThbv9DF,Lakdaram,17.55670952,78.18506375,bus,MYP,Miyapur,28422.029311317256,False,False,15.0,16.666666666666668,0.3333333333333333,0.5
eHbnVL9F,Isnapur,17.5471729935757,78.2125073424965,bus,MYP,Miyapur,24237.213031217983,False,False,26.0,40.0,22.0,13.5
3McYaDDT,Muttangi,17.5427159207682,78.2266661524772,bus,MYP,Miyapur,22099.860370472874,False,False,24.0,40.333333333333336,22.333333333333332,14.5
vGbfDTyv,Pc Tanda,17.5371175408544,78.2430303091949,bus,MYP,Miyapur,19608.811495241698,False,False,19.0,32.333333333333336,23.333333333333332,14.0
F3aXWUAz,Navapan Industries,17.53226294,78.25435426,bus,MYP,Miyapur,17840.753298431217,False,False,24.0,24.666666666666668,15.333333333333334,15.5
SQRaHPms,Patancheruvu,17.5295419780095,78.2641071137562,bus,MYP,Miyapur,16384.215978525106,False,False,15.0,7.666666666666667,9.333333333333334,5.75
FMXqLNtM,J.P Colony,17.5286758468744,78.2672027125954,bus,MYP,Miyapur,15921.804031728707,False,False,38.0,50.666666666666664,45.666666666666664,54.5
8NDo3n3K,Icrisat,17.5183441688588,78.2794387320302,bus,MYP,Miyapur,13814.921383971732,False,False,17.0,11.666666666666666,12.333333333333334,8.75
HBEsChQJ,Rc Puram,17.5138064754564,78.2883543017682,bus,MYP,Miyapur,12417.310231483983,False,False,46.0,84.0,87.66666666666667,92.75
uszXY4af,Beeramguda Kaman,17.508994,78.300791,bus,MYP,Miyapur,10528.04808976603,False,False,45.0,86.33333333333333,85.33333333333333,96.75
88qmN6Io,Ashok Nagar - Bhel,17.504589,78.308468,bus,MYP,Miyapur,9338.803001005512,False,False,48.0,78.0,88.33333333333333,100.75
KdJtfeXu,Lingampally,17.4940842408934,78.3158200993873,bus,MYP,Miyapur,8214.832597873456,False,False,30.0,19.0,23.0,21.25
WnogEKf8,Lingampally Railway Station,17.4800420686704,78.3153319773373,bus,MYP,Miyapur,8636.818544727,False,False,27.0,18.0,28.333333333333332,35.25
4WOwv4iE,Alind,17.4766752450096,78.3247330784797,bus,MYP,Miyapur,7538.226775422879,False,False,24.0,20.333333333333332,32.0,33.25
lohzZAZ2,Hcu Main Gate,17.468233,78.331306,bus,MYP,Miyapur,7330.76531734586,False,False,16.0,15.0,15.666666666666666,19.75
Mzyf0mUV,Hcu Main Gate,17.462201924859,78.3355021905873,bus,RDG,Raidurg,6702.693072267039,False,False,17.0,11.666666666666666,15.0,21.25
X2pdhYhb,Masjid Banda,17.4594308426531,78.338016717216,bus,RDG,Raidurg,6197.42625610429,False,False,25.0,10.333333333333334,14.666666666666666,19.0
fEiTwduh,Hcu Small Gate,17.456496,78.340242,bus,RDG,Raidurg,5729.349126981797,False,False,17.0,9.333333333333334,11.666666666666666,19.25
XvrhNaV0,Gachibowli Stadium,17.45075,78.3468,bus,RDG,Raidurg,4554.618143677544,False,False,21.0,9.666666666666666,16.333333333333332,17.25
n8YbCvTO,Iiit,17.4444415069752,78.3536848225163,bus,RDG,Raidurg,3394.540233440155,False,False,43.0,25.0,33.666666666666664,35.75
CTLSoPoL,Indira Nagar- Gachibowli,17.440605937791,78.3609429014555,bus,RDG,Raidurg,2342.6674894893545,False,True,44.0,23.333333333333332,34.0,35.75
WcY4kntl,Gachibowli,17.4383272428414,78.3645652234554,bus,RDG,Raidurg,1894.8881962712842,False,True,53.0,31.0,43.333333333333336,47.0
b8EKh3kU,Telecom Nagar Hyd,17.4355955734748,78.3677530262161,bus,RDG,Raidurg,1660.074962158399,False,True,42.0,24.0,37.333333333333336,42.0
RIQHN9r7,Bio Diversity,17.4291572246488,78.3750432480949,bus,RDG,Raidurg,1944.7866076141038,False,True,33.0,9.0,16.0,24.0
5TZMCxdr,Khajaguda X Rd,17.4223088999908,78.3829693355014,bus,RDG,Raidurg,3057.7485635147827,False,False,39.0,12.666666666666666,24.0,32.25
PUvsyqi8,Darga,17.4121744484932,78.395873327474,bus,PED,Peddamma Gudi,3293.401768903387,False,False,46.0,11.0,24.666666666666668,33.75
FWbv1Cmq,Shaikpet Nala,17.4072424974488,78.4024259448051,bus,JCP,Jubilee Hills Checkpost,3526.596609996598,False,False,36.0,6.666666666666667,21.0,25.75
Z9AN7eoD,Brindhavan Colony,17.4035080135269,78.4092719480395,bus,JCP,Jubilee Hills Checkpost,3745.394882368571,False,False,47.0,6.333333333333333,20.333333333333332,28.75
5UVBX5dh,Toli Chowki,17.3992442925762,78.4155178152593,bus,JCP,Jubilee Hills Checkpost,4335.833803392306,False,False,39.0,5.333333333333333,20.333333333333332,29.0
22iIia8u,Nanal Nagar,17.3962,78.427,bus,JR5,Road No 5 Jubilee Hills,5089.204634118301,False,False,52.0,5.333333333333333,17.666666666666668,27.0
aoPnUaKX,Chilkur Village,17.3479297020817,78.2888880372047,bus,RDG,Raidurg,18933.335718188202,False,False,5.0,0.0,0.6666666666666666,0.5
iUuodAW7,Appojiguda X Road,17.3606562037996,78.2732238838611,bus,RDG,Raidurg,19251.628542026003,False,False,5.0,0.0,0.0,0.25
5F8iepNn,Chandanagar-Moinabad,17.3667295539635,78.2589116336718,bus,RDG,Raidurg,20369.079138196514,False,False,9.0,0.0,0.0,0.25
xetyljvm,Chandanagar-Moinabad,17.3738574952229,78.2613282188131,bus,RDG,Raidurg,19503.408492387123,False,False,3.0,0.3333333333333333,0.0,0.5
1wiLVWe6,Reddipalle-Moinabad,17.3731075761874,78.2462047040462,bus,RDG,Raidurg,21438.276157493194,False,False,7.0,0.0,0.0,0.25
H9uufHGx,Chinna Mangalaram,17.3907210238526,78.2270173001282,bus,RDG,Raidurg,22877.929964178707,False,False,4.0,0.6666666666666666,0.0,0.75
amXWe4hA,Reddipalle-Moinabad,17.3731165046174,78.2462315261363,bus,RDG,Raidurg,21434.25791345683,False,False,8.0,0.6666666666666666,0.3333333333333333,1.0
NIHDGDPX,Chandanagar-Moinabad,17.3667128362882,78.2590672373771,bus,RDG,Raidurg,20351.848098392762,False,False,4.0,0.3333333333333333,0.0,0.5
lkHmcJv1,Appojiguda,17.3717328988695,78.2755266160991,bus,RDG,Raidurg,17981.164868270276,False,False,2.0,0.3333333333333333,0.0,0.0
OsSnpobb,Appojiguda X Road,17.3607252866651,78.2732077944164,bus,RDG,Raidurg,19246.89527750566,False,False,6.0,0.3333333333333333,0.0,0.5
KFvPMe35,Chilkur Village,17.3479553562249,78.2888786528941,bus,RDG,Raidurg,18931.388653891878,False,False,6.0,0.0,0.0,0.5
LbLMZ7ql,Chilkur Quarters Twd Azizs Nagar,17.3439638667429,78.2953722776283,bus,RDG,Raidurg,18782.15313222479,False,False,1.0,0.0,0.0,0.0
qNee7vZl,Cbit Hostel Twd Mehdipatnam,17.3962752935478,78.3115983037954,bus,RDG,Raidurg,11635.193551684673,False,False,3.0,0.0,0.3333333333333333,0.75
9ahqTeb2,Womens College Koti,17.3849503004599,78.4884792567614,bus,SUB,Sultan Bazar,643.8474855500269,True,True,138.0,51.333333333333336,61.0,74.75
tRKrXYoZ,Womens College Koti,17.3848082571423,78.4876209576359,bus,SUB,Sultan Bazar,519.0640091270279,True,True,66.0,6.666666666666667,31.0,24.75
PdS5x1iC,Koti,17.3830984222874,78.4828198363385,bus,OMC,Osmania Medical College,221.5864873083492,True,True,105.0,51.666666666666664,59.333333333333336,76.5
QjPFvUK8,Abids Gpo,17.387567552846,78.4761732780757,bus,GAB,Gandhi Bhavan,483.5438626179301,True,True,94.0,60.0,69.0,78.5
0JxeENcx,Kukatpally,17.483853963508,78.41241718136,bus,KUK,Kukatpally,180.86615224870692,True,True,56.0,20.666666666666668,49.666666666666664,72.25
DFla4Krg,Kphb,17.494062,78.400453,bus,KPH,KPHB Colony,202.0324766366329,True,True,58.0,10.666666666666666,41.333333333333336,66.25
5JNKM30n,Jntu,17.496261,78.39441,bus,JNT,JNTU College,875.0107313602502,False,True,52.0,4.333333333333333,24.666666666666668,57.75
lXQ2Ri6E,Nizampet X Rds,17.498276,78.390314,bus,JNT,JNTU College,217.22287227990654,True,True,44.0,2.3333333333333335,21.0,48.25
SX8Vkcd2,Hydernagar,17.499185,78.383519,bus,JNT,JNTU College,770.5049391707,True,True,54.0,6.333333333333333,23.666666666666668,64.25
QaDZj4Nl,Miyapur Metro Station,17.496265,78.370945,bus,MYP,Miyapur,301.47817065220846,True,True,44.0,3.6666666666666665,7.0,44.75
YAi2DjcQ,Miyapur X Road,17.4964809673082,78.3626092759049,bus,MYP,Miyapur,1494.371215600027,False,True,46.0,4.333333333333333,3.3333333333333335,37.75
VocKUPzH,Miyapur,17.495772,78.357949,bus,MYP,Miyapur,2165.9659519847432,False,True,41.0,5.0,3.3333333333333335,36.75
rmYfcZ5Z,Allwyn X Road,17.4939180409565,78.3500665416738,bus,MYP,Miyapur,3317.0070166622418,False,False,46.0,3.3333333333333335,5.333333333333333,48.0
Y9F02Tzl,Madeenaguda,17.494912,78.340601,bus,MYP,Miyapur,4657.957580384174,False,False,38.0,3.0,1.0,30.0
rfBAovF9,Gangaram,17.4950921682438,78.3327071191635,bus,MYP,Miyapur,5788.0617102232,False,False,48.0,4.0,1.6666666666666667,29.0
n9wOSYw8,Chandanagar,17.494893,78.323144,bus,MYP,Miyapur,7160.154654851525,False,False,45.0,3.0,1.0,20.25
NvZJ6Bq3,Lingampally,17.4948491868717,78.316890299404,bus,MYP,Miyapur,8057.033166171108,False,False,71.0,37.0,32.0,59.25
fj8FVMOk,Jyothi Nagar-Bhel,17.501464,78.312041,bus,MYP,Miyapur,8779.41214241885,False,False,47.0,6.666666666666667,3.3333333333333335,7.5
dRMDe5T6,Ashok Nagar - Bhel,17.504123,78.308781,bus,MYP,Miyapur,9285.531702252767,False,False,58.0,11.0,8.333333333333334,11.75
Nw9MwrDH,Beeramguda Kaman,17.50889,78.300277,bus,MYP,Miyapur,10597.915342695764,False,False,46.0,7.333333333333333,4.333333333333333,3.5
1o698GP3,Rc Puram,17.513617,78.287795,bus,MYP,Miyapur,12489.991420842607,False,False,55.0,11.333333333333334,7.666666666666667,13.5
II7bciLP,Icrisat,17.518553830327,78.2787145288346,bus,MYP,Miyapur,13923.26729151213,False,False,44.0,7.666666666666667,6.333333333333333,2.5
enXMW3fY,Patancheruvu,17.5290253139952,78.2642841474539,bus,MYP,Miyapur,16336.89662457548,False,False,61.0,78.33333333333333,60.666666666666664,80.5
6PCwr68X,Allwyn,17.5248984841061,78.2717292847092,bus,MYP,Miyapur,15136.36316644359,False,False,22.0,55.333333333333336,48.333333333333336,44.25
WV9IcDKE,Icrisat,17.5183441688588,78.2794387320302,bus,MYP,Miyapur,13814.921383971732,False,False,41.0,80.0,79.0,87.0
7GAFuon5,Jyothi Nagar-Bhel,17.50207,78.312112,bus,MYP,Miyapur,8777.309327160654,False,False,41.0,59.0,67.0,83.25
kduNCBUS,Lingampally,17.4952073347695,78.317260102941,bus,MYP,Miyapur,8002.48289022374,False,False,45.0,61.666666666666664,78.33333333333333,91.75
p7cz7tF2,Chandanagar,17.4951612775954,78.322976231575,bus,MYP,Miyapur,7182.9358387829325,False,False,43.0,63.666666666666664,75.0,95.5
Md3ixzA9,Gangaram,17.4951740682765,78.330899477005,bus,MYP,Miyapur,6046.777882673148,False,False,46.0,60.0,74.66666666666667,99.0
B4DT0HD4,Madeenaguda,17.49539,78.340708,bus,MYP,Miyapur,4639.4135880615695,False,False,41.0,53.0,67.66666666666667,95.0
THhHj4EN,Deepthi Sri Nagar,17.495068,78.345604,bus,MYP,Miyapur,3940.0339821680036,False,False,22.0,28.333333333333332,36.0,50.75
hAUDjfku,Allwyn X Road,17.4944114182666,78.3522099578215,bus,MYP,Miyapur,3003.172877724031,False,False,37.0,36.666666666666664,59.666666666666664,82.0
NZVBKXVQ,Miyapur,17.4966935951901,78.3607712388819,bus,MYP,Miyapur,1758.1526575460753,False,True,44.0,35.333333333333336,61.0,86.0
O2WcwZw9,Miyapur X Road,17.4968376514425,78.363583650579,bus,MYP,Miyapur,1355.2668358047263,False,True,44.0,30.666666666666668,62.333333333333336,82.5
5tRdKNc0,Miyapur Metro Station,17.496817,78.371098,bus,MYP,Miyapur,279.5737122895715,True,True,46.0,27.666666666666668,59.333333333333336,83.75
D0CKSBuN,Hydernagar,17.49954,78.383844,bus,JNT,JNTU College,731.2824994772694,True,True,48.0,16.666666666666668,57.666666666666664,77.5
BcrTembT,Nizampet X Rds,17.498657,78.390476,bus,JNT,JNTU College,230.94389175597334,True,True,44.0,24.333333333333332,48.333333333333336,72.75
Yjlj2QcH,Jntu,17.4967243164815,78.3944463706495,bus,JNT,JNTU College,853.3342849820846,False,True,57.0,25.333333333333332,52.0,77.0
jKdphPgN,Kphb,17.4945575242355,78.4008099307912,bus,KPH,KPHB Colony,188.2649681298102,True,True,61.0,28.0,42.333333333333336,76.25
6ieMkQHe,Kukatpally,17.4837158155045,78.4129241088958,bus,KUK,Kukatpally,240.83500459666615,True,True,60.0,34.333333333333336,39.666666666666664,95.75
ag157Sbi,Moosapet,17.4727070918128,78.4256511936536,bus,MSP,Moosapet,139.9049597348289,True,True,69.0,30.666666666666668,47.666666666666664,80.5
P7COoExj,Bharath Nagar,17.4671296630644,78.4290361667966,bus,BTN,Bharat Nagar,666.615126099431,True,True,66.0,20.666666666666668,44.0,75.5
LIzlAAM2,Erragadda,17.4527856758918,78.4357899588463,bus,ESI,ESI Hospital,665.7057917309288,True,True,80.0,36.666666666666664,57.666666666666664,97.0
UQN34MTt,Esi Hospital,17.446138,78.439221,bus,ESI,ESI Hospital,445.5876711542432,True,True,78.0,29.0,54.333333333333336,87.75
MTUln49h,Sr Nagar,17.440269,78.442599,bus,SRN,S. R. Nagar,504.05756444694725,True,True,83.0,34.0,68.33333333333333,101.0
4SATTACn,Maithrivanam,17.4378424921511,78.4434931628764,bus,AME,Ameerpet,367.8866217825242,True,True,81.0,24.666666666666668,54.0,78.75
E7s4NexM,Ameerpet,17.431749,78.447983,bus,PUN,Panjagutta,598.8957516071723,True,True,66.0,13.666666666666666,36.0,55.0
UefVeqR5,Panjaguta Metro Station,17.429261,78.450954,bus,PUN,Panjagutta,48.55311950607417,True,True,55.0,20.666666666666668,42.0,56.5
ayYyCeX1,Nims Hospital,17.4231637788918,78.4545278318342,bus,IRM,Erra Manzil,510.61591061812277,True,True,58.0,12.0,25.333333333333332,33.75
17u3Dlmo,Irram Manzil,17.4205278888891,78.4561856383438,bus,IRM,Erra Manzil,50.42297769025078,True,True,56.0,6.333333333333333,18.666666666666668,26.75
kOM90j5y,Somajiguda,17.4159262451386,78.4578323182703,bus,IRM,Erra Manzil,677.5375492145516,True,True,44.0,2.6666666666666665,17.0,23.5
F7NYzY8g,Khairatabad,17.4128396608948,78.4605681944127,bus,KHA,Khairatabad,185.5323310763969,True,True,57.0,4.333333333333333,18.0,28.75
1EVLfRYi,Chintal Basthi,17.408954704223,78.460584290468,bus,KHA,Khairatabad,402.32104300814564,True,True,34.0,0.3333333333333333,14.0,14.75
LUl5q810,Assembly,17.4022439861885,78.4685611452085,bus,LKP,Lakdi-ka-pul,584.6348505129224,True,True,91.0,13.666666666666666,34.333333333333336,64.0
FQ28CymB,Abids Grammar School,17.3933318257546,78.476249708728,bus,NAM,Nampally,889.4529650393029,False,True,96.0,18.0,33.666666666666664,58.0
8VIiwiTV,Koti Bank Street,17.3854273566073,78.4819078498332,bus,SUB,Sultan Bazar,337.2268077046234,True,True,70.0,10.333333333333334,18.333333333333332,33.25
1XFVrKv3,Bhagyalatha,17.3326600370083,78.5887992382049,bus,LBN,L. B. Nagar,6403.212763124004,False,False,90.0,46.666666666666664,57.666666666666664,51.75
PAAUi1nF,High Court Colony-Dsnr,17.334888,78.5848,bus,LBN,L. B. Nagar,5744.194911412657,False,False,82.0,43.333333333333336,57.666666666666664,44.5
EqUJBGCm,Auto Nagar-Sushma,17.336228,78.576683,bus,LBN,L. B. Nagar,4600.7714089070805,False,False,81.0,44.0,57.0,45.5
4hKYSm5a,Sushma-Autonagar,17.336679,78.573089,bus,LBN,L. B. Nagar,4111.684549075494,False,False,94.0,47.333333333333336,60.666666666666664,69.5
ctHg6lcm,Lb Nagar,17.3469873366197,78.5501271385654,bus,LBN,L. B. Nagar,530.1397817244783,True,True,126.0,64.66666666666667,56.666666666666664,76.75
fXQQH2MZ,Lb Nagar Metro Station,17.3501149525109,78.5475092285759,bus,LBN,L. B. Nagar,73.90069001351013,True,True,93.0,62.0,52.333333333333336,60.25
H34GqhjL,Ntr Nagar Lb Nagar,17.3557181903671,78.54530411806,bus,VOM,Victoria Memorial,937.5241323694333,False,True,106.0,69.33333333333333,54.333333333333336,70.5
j03fTpZX,Ashtalakshmi Temple-Kothapet,17.362788,78.543466,bus,VOM,Victoria Memorial,156.3956453917444,True,True,112.0,63.666666666666664,54.333333333333336,76.0
URqOZwMM,Kothapet X Road,17.3671302047088,78.540404143283,bus,CHP,Chaitanyapuri,359.8122485270453,True,True,101.0,59.0,55.0,70.25
85BLnSI1,Kothapet-Fruit Market,17.3682514450115,78.5347473621368,bus,CHP,Chaitanyapuri,486.27004427578845,True,True,109.0,62.0,74.0,91.5
nCGtoaLy,Chaithanyapuri,17.3683129496413,78.5313431392741,bus,DSN,Dilsukh Nagar,855.6130824115365,False,True,128.0,56.0,83.0,101.75
4URl0L5Y,Dilsukhnagar,17.3684429476971,78.5231852300852,bus,DSN,Dilsukh Nagar,316.4788462687581,True,True,132.0,53.333333333333336,90.0,105.0
CWHLIfmF,Moosarambhagh,17.3696030912484,78.5157787711054,bus,MSB,Musarambagh,592.0627272669881,True,True,103.0,20.333333333333332,71.66666666666667,77.0
sZoLwKhA,Super Bazar Malakpet,17.371934,78.50992,bus,MSB,Musarambagh,318.27145959251743,True,True,109.0,16.0,73.66666666666667,75.0
eZaYndv0,Chermas Malakpet,17.373002587618,78.5052967071533,bus,NEM,New Market,311.07588599183913,True,True,86.0,4.666666666666667,67.66666666666667,58.5
lvN5ZKax,Nalgonda X Roads,17.3741802708231,78.4997124246527,bus,NEM,New Market,509.5717662437801,True,True,96.0,11.0,64.66666666666667,56.5
puLeqHhl,Chaderghat,17.3772160516947,78.4930202364921,bus,MKL,Malakpet,131.4486027572657,True,True,131.0,10.666666666666666,53.333333333333336,51.75
bv5t1O6B,Chadarghat,17.377081,78.49577,bus,MKL,Malakpet,263.7906052807792,True,True,150.0,79.33333333333333,74.0,97.25
fFjh9l4f,Super Bazar Bus Stop,17.3724598986845,78.5091124847531,bus,MSB,Musarambagh,456.62337196902104,True,True,97.0,44.333333333333336,61.666666666666664,64.5
5lBRTe5B,Dilsukhnagar Bs,17.3688043819962,78.5238387022153,bus,DSN,Dilsukh Nagar,225.52788333120543,True,True,24.0,22.333333333333332,23.666666666666668,14.0
ygPilzwX,Ashtalakshmi Temple-Kothapet,17.362645,78.543864,bus,VOM,Victoria Memorial,118.70088623536098,True,True,107.0,49.333333333333336,56.666666666666664,73.75
VfWv1xKO,Laxmireddy Palem,17.3207661276856,78.626633479152,bus,LBN,L. B. Nagar,12104.178449382183,False,False,53.0,14.666666666666666,18.333333333333332,18.5
qdyOuVOq,Pedda Amberpet,17.3214319909812,78.6393264168249,bus,LBN,L. B. Nagar,13789.241102570335,False,False,52.0,11.666666666666666,17.333333333333332,20.5
5Jsa2cry,Outer Ring Road,17.3175986217581,78.661840280674,bus,LBN,L. B. Nagar,17046.587713868386,False,False,40.0,7.666666666666667,15.666666666666666,19.75
vMvkw0ys,Abdullapurmet,17.310007,78.686613,bus,LBN,L. B. Nagar,20778.9815395445,False,False,36.0,4.666666666666667,16.0,17.75
OhviA7kV,Inamguda,17.306523,78.705618,bus,LBN,L. B. Nagar,23543.868611575148,False,False,18.0,1.3333333333333333,13.666666666666666,16.0
0DezTsQi,Jafferguda X Road,17.3069133219053,78.7155309377061,bus,LBN,L. B. Nagar,24899.947509052312,False,False,17.0,1.0,13.333333333333334,16.0
1DxNpC0z,Bata Singaram,17.3056575377595,78.7288367003202,bus,LBN,L. B. Nagar,26795.72284411781,False,False,15.0,0.6666666666666666,9.666666666666666,14.75
mMoDIF8Z,Kothagudem,17.3007589969332,78.7393836166736,bus,LBN,L. B. Nagar,28445.811259330592,False,False,12.0,0.3333333333333333,5.666666666666667,15.75
iFO6HFif,Dandumailaram X Road,17.2925416679072,78.7539321184158,bus,LBN,L. B. Nagar,30787.805147254687,False,False,9.0,0.6666666666666666,2.3333333333333335,12.75
Bx1F0lE0,Toopranpet,17.2916273800597,78.7608924520905,bus,LBN,L. B. Nagar,31785.955674984507,False,False,10.0,0.6666666666666666,2.0,12.5
23CIGReG,Andol Maisamma,17.2820489700787,78.7830501207823,bus,LBN,L. B. Nagar,35241.573083484975,False,False,9.0,0.6666666666666666,0.3333333333333333,13.5
IdFkmzvP,Malkapur,17.280343,78.796394,bus,LBN,L. B. Nagar,37150.96368815984,False,False,8.0,0.3333333333333333,0.3333333333333333,10.75
hEKGr0me,Kaithapur,17.2675754010915,78.8271671647051,bus,LBN,L. B. Nagar,41931.42335895287,False,False,9.0,0.3333333333333333,0.6666666666666666,5.75
6Y38y3x3,Koyyalagudem,17.2609186506978,78.8439524041697,bus,LBN,L. B. Nagar,44528.22811246088,False,False,9.0,0.6666666666666666,0.3333333333333333,2.0
2pzMp4DB,Dharmojigudem,17.2565641637626,78.8777777558594,bus,LBN,L. B. Nagar,49364.38093046668,False,False,9.0,0.6666666666666666,0.0,1.25
W3eaikE1,Choutuppal Bs,17.254412533861,78.8944798707962,bus,LBN,L. B. Nagar,51756.83154241496,False,False,11.0,14.666666666666666,10.0,10.5
iktEJq83,Dharmojigudem,17.2564259154025,78.8777000394818,bus,LBN,L. B. Nagar,49359.536403191116,False,False,7.0,14.0,8.666666666666666,10.75
dUQ79Lat,Koyyalagudem,17.2604267533691,78.8439953327178,bus,LBN,L. B. Nagar,44556.16022354031,False,False,7.0,14.333333333333334,8.333333333333334,11.5
nzBeb6JC,Kaithapur,17.2676300500789,78.8266226649284,bus,LBN,L. B. Nagar,41854.29625239355,False,False,7.0,13.0,8.333333333333334,12.0
TOFkPo9B,Malkapur,17.280127,78.7965,bus,LBN,L. B. Nagar,37174.62994920566,False,False,6.0,10.0,10.0,13.25
12pJETKr,Andol Maisamma,17.2824127178787,78.7822079574652,bus,LBN,L. B. Nagar,35110.12378183688,False,False,7.0,10.0,11.333333333333334,15.0
GIbzlNRL,Toopranpet,17.291326,78.76186,bus,LBN,L. B. Nagar,31931.898547134173,False,False,7.0,7.0,14.0,14.25
hvR3himq,Dandumailaram X Road,17.2922868504301,78.7541761782769,bus,LBN,L. B. Nagar,30832.083811004584,False,False,7.0,4.666666666666667,13.0,14.75
vtACzCrV,Kothagudem,17.3005950044002,78.739249428387,bus,LBN,L. B. Nagar,28433.548382965215,False,False,15.0,5.0,17.333333333333332,16.75
EhPooyEv,Bata Singaram,17.3052670169839,78.7292400375008,bus,LBN,L. B. Nagar,26866.282024501525,False,False,12.0,3.6666666666666665,12.666666666666666,13.0
ANNOm3sh,Jafferguda X Road,17.3065424879152,78.7155924749532,bus,LBN,L. B. Nagar,24922.842930558574,False,False,16.0,4.333333333333333,15.0,15.5
u5FObTEK,Inamguda,17.306185,78.705423,bus,LBN,L. B. Nagar,23530.93737881843,False,False,17.0,3.6666666666666665,11.333333333333334,14.75
bYNoEFSN,Abdullapurmet,17.30977,78.686607,bus,LBN,L. B. Nagar,20788.348035631527,False,False,35.0,10.0,13.333333333333334,23.25
UxlFgM6j,Outer Ring Road,17.3172867935157,78.662109152387,bus,LBN,L. B. Nagar,17096.834727528803,False,False,38.0,8.666666666666666,10.333333333333334,23.5
giMY0XoZ,Pedda Amberpet,17.3205492,78.64124112,bus,LBN,L. B. Nagar,14091.467521347418,False,False,51.0,9.666666666666666,9.333333333333334,25.75
lwT4qIh2,Laxmireddy Palem,17.3205565388484,78.6265720024474,bus,LBN,L. B. Nagar,12107.240802632792,False,False,49.0,9.666666666666666,9.0,27.0
MhuyshjB,Dilsukhnagar,17.3686200725547,78.5236644825776,bus,DSN,Dilsukh Nagar,247.51469650879085,True,True,121.0,55.666666666666664,73.33333333333333,90.75
lHmEewAT,Chaithanyapuri,17.3684817771007,78.5326123252406,bus,CHP,Chaitanyapuri,794.0388794476063,True,True,111.0,54.0,68.33333333333333,85.5
h9voTH7m,Kothapet-Fruit Market,17.3685176760893,78.5350263118744,bus,CHP,Chaitanyapuri,449.36583948613594,True,True,96.0,33.333333333333336,47.666666666666664,65.75
AqZ2QeCT,Kothapet X Road,17.36683421,78.54130168,bus,CHP,Chaitanyapuri,495.4651059777833,True,True,84.0,37.333333333333336,53.666666666666664,64.0
QHrSIczA,Ntr Nagar Lb Nagar,17.3559666460859,78.5456078099895,bus,VOM,Victoria Memorial,911.5234990395682,False,True,101.0,41.333333333333336,44.666666666666664,73.25
EULzHBDa,Lb Nagar Metro Station,17.3497167163347,78.5481692175075,bus,LBN,L. B. Nagar,38.010685323815395,True,True,92.0,15.333333333333334,23.666666666666668,55.75
8LFMgL8w,Sushma-Autonagar,17.336986,78.573452,bus,LBN,L. B. Nagar,4135.983264475319,False,False,83.0,14.333333333333334,28.666666666666668,38.25
XdTavtD9,Autonagar Hayatnagar,17.336495,78.576728,bus,LBN,L. B. Nagar,4589.067612622981,False,False,81.0,2.0,16.666666666666668,36.75
p8GTujGn,High Court Colony-Dsnr,17.335042,78.585203,bus,LBN,L. B. Nagar,5788.687547738938,False,False,80.0,2.0,14.666666666666666,37.0
YUE38iid,Rajendra Nagar Bus Depot,17.3347442013132,78.4093433618545,bus,GAB,Gandhi Bhavan,11945.340706536608,False,False,34.0,8.0,16.0,3.0
vqEeoNzr,Nppti,17.3370254585382,78.4117895364761,bus,GAB,Gandhi Bhavan,11457.321121750107,False,False,29.0,8.333333333333334,19.0,12.25
D5gSvozj,Dairy Farm,17.345415,78.416081,bus,GAB,Gandhi Bhavan,10199.832417488706,False,False,45.0,33.333333333333336,40.333333333333336,54.75
ChmUll1G,Ws Colony,17.3325569781505,78.426885344088,bus,GAB,Gandhi Bhavan,10385.90861758381,False,False,47.0,30.0,46.333333333333336,53.0
ClOYL7ib,Shivarampally X Road,17.3266662961617,78.4257102254793,bus,GAB,Gandhi Bhavan,11177.910895966466,False,False,47.0,29.666666666666668,48.0,50.75
BMX7A8jV,Aramghar,17.3212478732811,78.4316030680496,bus,GAB,Gandhi Bhavan,11361.19041158903,False,False,64.0,16.0,13.333333333333334,31.75
D6y4m7A5,Ag College,17.3137973031086,78.4247664851953,bus,GAB,Gandhi Bhavan,12827.503531483606,False,False,63.0,13.0,8.666666666666666,24.0
pWgyJcJa,Gagan Pahad,17.2928908969124,78.417686383595,bus,GAB,Gandhi Bhavan,16025.760808093655,False,False,60.0,12.333333333333334,10.0,23.25
WZDC0taq,Sathamrai,17.2745185707741,78.4011790016069,bus,GAB,Gandhi Bhavan,19600.369464499454,False,False,60.0,9.0,10.333333333333334,22.5
g7ENJRdr,Shamshabad,17.264461066455,78.3913376954827,bus,GAB,Gandhi Bhavan,21627.516892349195,False,False,12.0,4.666666666666667,0.3333333333333333,2.75
ZdNjgXdW,Shamshabad,17.2620456513998,78.3882424235343,bus,GAB,Gandhi Bhavan,22173.094465444523,False,False,32.0,6.666666666666667,4.0,8.25
U6BONCXR,Shamshabad,17.262309,78.387974,bus,GAB,Gandhi Bhavan,22161.542210220498,False,False,79.0,25.666666666666668,28.666666666666668,36.75
feffDLXG,Rallaguda,17.2650001978153,78.3741058394178,bus,GAB,Gandhi Bhavan,23004.706272503136,False,False,14.0,4.0,2.0,2.0
IIBnyjHU,Doddi,17.2639743580431,78.3686810362125,bus,GAB,Gandhi Bhavan,23613.221672446292,False,False,14.0,4.333333333333333,2.3333333333333335,1.75
S3eNNtFz,Oasis School Of Excellence,17.2621429844156,78.352708518505,bus,GAB,Gandhi Bhavan,25334.251597416336,False,False,11.0,4.0,2.6666666666666665,1.5
g9pPRtYl,Narkhoda,17.258,78.335,bus,GAB,Gandhi Bhavan,27562.10985018089,False,False,14.0,4.0,2.3333333333333335,1.75
3EYcsiTP,Sultanpally X Roads,17.2562465600622,78.3194410800934,bus,RDG,Raidurg,28981.196978343574,False,False,14.0,3.3333333333333335,1.6666666666666667,2.0
l9hdl9i4,Vardhaman Clg,17.254,78.308,bus,RDG,Raidurg,29809.83567518248,False,False,11.0,3.3333333333333335,2.0,2.25
juFEYmlr,Kacharam,17.252,78.295,bus,RDG,Raidurg,30758.822727151302,False,False,10.0,2.6666666666666665,2.0,2.25
E44j7zL3,Rayannaguda,17.252,78.29,bus,RDG,Raidurg,31041.40885671131,False,False,5.0,2.0,2.0,2.0
pixGJcLd,Malkaram,17.251,78.276,bus,RDG,Raidurg,32038.542255498825,False,False,6.0,1.6666666666666667,2.0,2.0
Kn36fka6,Kavelliguda,17.2474348689513,78.256934876854,bus,RDG,Raidurg,33826.783954820654,False,False,6.0,0.6666666666666666,2.3333333333333335,1.75
49GCBJ9p,Venkatapur-Moinabad,17.2470249630663,78.2537861163067,bus,RDG,Raidurg,34112.18485641092,False,False,5.0,0.6666666666666666,2.3333333333333335,2.75
tfVsWFTI,Ramanujapur-Shamshabad,17.2334632088911,78.2469624280929,bus,RDG,Raidurg,36354.651274899996,False,False,4.0,0.3333333333333333,2.6666666666666665,2.25
UXwEtF8z,Maddur,17.217,78.226,bus,RDG,Raidurg,40035.97184227047,False,False,4.0,0.0,2.6666666666666665,1.75
FDhEB62C,Hayathabad,17.225,78.199,bus,RDG,Raidurg,41318.699372195246,False,False,4.0,0.0,2.3333333333333335,1.75
osgFW4WG,Chandanvelly,17.229,78.17,bus,RDG,Raidurg,43580.464511681865,False,False,3.0,0.0,1.3333333333333333,1.5
RTmvIZk6,Rudraram-Shabad,17.2353643424144,78.1579399108886,bus,RDG,Raidurg,44108.841787243844,False,False,3.0,0.0,1.0,1.75
kMPUBsmI,Nagarguda,17.2340077629554,78.1362850964069,bus,RDG,Raidurg,46515.18580892169,False,False,3.0,0.0,0.3333333333333333,1.5
xiDcOv0f,Allwada,17.2547135100818,78.136433288455,bus,RDG,Raidurg,44487.266812361406,False,False,2.0,0.0,0.0,1.25
mNC8BEe7,Kamena,17.299,78.146,bus,RDG,Raidurg,39481.7642395267,False,False,2.0,0.0,0.0,1.5
36OjrsAe,Malreddyguda,17.3040554231095,78.1460979789561,bus,RDG,Raidurg,39065.324944819666,False,False,2.0,0.0,0.0,1.5
SA2zPWiO,Moosarambhagh,17.3711242901418,78.5147541524288,bus,MSB,Musarambagh,401.89012629214926,True,True,11.0,13.666666666666666,14.666666666666666,16.0
VG2Fqlqg,Sripuram Colony,17.3766370298801,78.514668306653,bus,MSB,Musarambagh,916.4635676383614,False,True,11.0,12.333333333333334,14.666666666666666,16.0
sefI86gV,Ali Cafe Amberpet,17.3820655088299,78.5182115463216,bus,MSB,Musarambagh,1870.6806339750926,False,True,11.0,10.333333333333334,16.333333333333332,14.75
DkuF8ajC,Amberpet,17.3903063535608,78.5164546966552,bus,MSB,Musarambagh,2944.546252231543,False,True,12.0,4.333333333333333,12.666666666666666,11.25
Wi1A6UP7,Gol Naka,17.3905366344522,78.5063748247884,bus,CDP,Chikkadpally,2207.147578192611,False,True,18.0,10.0,19.666666666666668,24.75
E0L28SCX,Kachiguda Kamela,17.3879834929853,78.5030423108275,bus,MKL,Malakpet,2076.564775560161,False,True,18.0,6.333333333333333,19.666666666666668,24.0
PwlGD5EA,Chaderghat,17.381472,78.492653,bus,MKL,Malakpet,666.1955375501898,True,True,32.0,29.333333333333332,36.0,42.25
IR5YiCGc,Nimboliadda,17.38422366,78.49360194,bus,MKL,Malakpet,1052.6635106902447,False,True,22.0,10.333333333333334,21.333333333333332,19.5
AZ9WhQ64,Kachiguda Railway Station,17.3895000782067,78.4972641621289,bus,NAR,Narayanaguda,1276.1754632736363,False,True,32.0,7.0,21.666666666666668,19.0
JrvyFDPx,Tourist Hotel,17.3910249620048,78.4964477653945,bus,NAR,Narayanaguda,1056.8775393013625,False,True,41.0,15.333333333333334,27.666666666666668,38.5
sp6IsDqi,Barkatpura,17.3956878487116,78.4973452978285,bus,CDP,Chikkadpally,782.2971740382844,True,True,21.0,6.0,17.333333333333332,21.25
2vJVGGV6,Fever Hospital,17.3954894926291,78.502201437639,bus,CDP,Chikkadpally,1276.684833485199,False,True,44.0,24.666666666666668,50.666666666666664,51.25
nzupSGfm,Tilak Nagar,17.3941927561175,78.5085408392456,bus,CDP,Chikkadpally,2164.5754952413818,False,True,22.0,3.6666666666666665,22.333333333333332,20.5
OsSkD3vJ,6 Number,17.3917410056045,78.5107938931193,bus,CDP,Chikkadpally,2620.454637623143,False,True,24.0,7.333333333333333,31.0,36.0
eM0iCuBF,Syndicate Bank Shivam,17.3987323852445,78.5125601291656,bus,CDP,Chikkadpally,2546.709971770118,False,True,15.0,2.0,9.0,17.0
YrwNfhtT,Prashanth Nagar-Shivam Road,17.400731315524,78.5134399058515,bus,RTC,RTC Cross Roads,2566.7340344123213,False,True,8.0,1.0,3.3333333333333335,9.5
hLdxxGbD,Shivam Ncc Gate,17.4052332709218,78.5153308815343,bus,RTC,RTC Cross Roads,2672.5935954126703,False,True,15.0,1.3333333333333333,9.0,16.5
wDqsOHCO,Vidya Nagar,17.4050037150669,78.5107245368069,bus,RTC,RTC Cross Roads,2020.856927847046,False,True,27.0,16.666666666666668,27.666666666666668,31.0
EDD7CZaN,Ram Nagar Gundu,17.4075189567081,78.512372417963,bus,RTC,RTC Cross Roads,2235.6375784837496,False,True,11.0,5.333333333333333,7.333333333333333,11.5
oMKMbf1F,Ramnagar Mee Seva,17.4091770457203,78.50878961007,bus,RTC,RTC Cross Roads,1749.9058705268444,False,True,13.0,7.333333333333333,9.0,12.25
9WnLcplj,Ram Nagar,17.4108604367769,78.5072573852958,bus,MSH,Musheerabad,1528.6769181807024,False,True,9.0,3.6666666666666665,4.333333333333333,7.0
iCEipTv0,Ramnagar,17.4095331156442,78.5066378116607,bus,RTC,RTC Cross Roads,1460.150926991184,False,True,9.0,3.6666666666666665,4.0,7.0
X8BcAHUa,Vst Bus Stop,17.4040810034301,78.5037886351346,bus,RTC,RTC Cross Roads,1095.3683770893556,False,True,29.0,7.333333333333333,19.666666666666668,21.25
GqTmKBDr,Tsrtc Bus Bhavan,17.4056659142196,78.4994293749332,bus,RTC,RTC Cross Roads,428.7696772437789,True,True,21.0,1.3333333333333333,8.333333333333334,16.0
kw1N8NkB,Rtc X Road,17.4080278515745,78.4971857025137,bus,RTC,RTC Cross Roads,158.6894863144606,True,True,54.0,10.666666666666666,10.333333333333334,49.0
x3XgqbYV,Golconda X Road,17.411665,78.497731,bus,RTC,RTC Cross Roads,705.235566744436,True,True,51.0,9.0,7.666666666666667,48.5
a6xZndzb,Raja Delux,17.4156575115019,78.498253222235,bus,MSH,Musheerabad,376.9438204178251,True,True,50.0,8.666666666666666,6.666666666666667,44.0
LDOgAU0x,Musheerabad Police Station,17.4205788881338,78.5004875059228,bus,MSH,Musheerabad,428.1428889120975,True,True,58.0,12.666666666666666,17.333333333333332,54.0
ZiAbK1p0,Gandhi Hospital,17.4240847714495,78.5017588823732,bus,GNH,Gandhi Hospital,215.72788584845435,True,True,52.0,7.0,6.666666666666667,36.5
jQvgQPeA,Bhoiguda Bus Stop,17.4279479076803,78.5020317882299,bus,GNH,Gandhi Hospital,363.75925767510364,True,True,30.0,6.666666666666667,3.6666666666666665,21.25
DCaIPbe6,Chilkalguda,17.4329931181123,78.5059779899351,bus,SEC_E,Secunderabad East,414.04043528154847,True,True,62.0,6.666666666666667,10.666666666666666,29.0
eNdxvjwG,Secunderabad,17.4345705224371,78.5048789398436,bus,SEC_E,Secunderabad East,190.9129959777797,True,True,119.0,87.33333333333333,100.66666666666667,129.75
JmW0moXL,Chilkalguda,17.4324940574966,78.5060262680053,bus,SEC_E,Secunderabad East,488.7204188992295,True,True,53.0,54.333333333333336,55.666666666666664,57.25
DDgeQvKN,Bhoiguda Bus Stop,17.4280713786337,78.5022007686814,bus,GNH,Gandhi Hospital,383.6641490485869,True,True,34.0,45.333333333333336,44.0,51.5
H3BCTb4F,Gandhi Hospital,17.4241671470292,78.5019711032509,bus,GNH,Gandhi Hospital,201.56362089976406,True,True,52.0,54.333333333333336,54.666666666666664,59.5
rUaGsUWW,Musheerabad,17.4187554655906,78.4998545065401,bus,MSH,Musheerabad,140.92349783717873,True,True,51.0,54.0,56.666666666666664,61.5
UQzoJQx1,Raja Delux,17.4150202949878,78.4981620286843,bus,MSH,Musheerabad,468.14715640577714,True,True,50.0,51.0,53.666666666666664,58.75
lwL1zY20,Golconda X Road,17.410802,78.498045,bus,RTC,RTC Cross Roads,591.0719874528463,True,True,45.0,52.0,53.333333333333336,61.0
RsudzIFL,Rtc X Road,17.4085272928372,78.4976229071617,bus,RTC,RTC Cross Roads,252.62957612450947,True,True,51.0,50.666666666666664,56.333333333333336,62.0
YnGSuglF,Tsrtc Bus Bhavan,17.4061266043217,78.4986984729767,bus,RTC,RTC Cross Roads,303.9245058274847,True,True,22.0,17.666666666666668,24.0,26.25
GdpLeJ1G,Vst Bus Stop,17.4041655553205,78.5044091468442,bus,RTC,RTC Cross Roads,1172.7470492557854,False,True,11.0,8.0,11.333333333333334,11.0
XmTP4oQr,Ramnagar,17.4095471798766,78.5065828244311,bus,RTC,RTC Cross Roads,1453.066721463534,False,True,10.0,9.0,12.333333333333334,11.5
qwiWay9U,Ram Nagar,17.4109714582318,78.5072386264801,bus,MSH,Musheerabad,1515.3701396415897,False,True,14.0,12.333333333333334,19.0,16.5
AOavnxz9,Ramnagar Mee Seva,17.4095644414969,78.5084429419839,bus,RTC,RTC Cross Roads,1712.880549381419,False,True,12.0,8.333333333333334,14.333333333333334,13.5
tazuGjMO,Ram Nagar Gundu,17.4075854486501,78.5123777389526,bus,RTC,RTC Cross Roads,2236.745868038602,False,True,16.0,13.666666666666666,18.0,17.5
R7xKlH6Y,Vidya Nagar,17.4049255253298,78.5122652588441,bus,RTC,RTC Cross Roads,2241.320388921501,False,True,16.0,9.333333333333334,16.333333333333332,15.5
lVoiWMnm,Shivam Ncc Gate,17.4037425152572,78.5148507301774,bus,RTC,RTC Cross Roads,2636.4001104733934,False,True,16.0,7.333333333333333,16.333333333333332,15.25
x3beGYEW,Prashanth Nagar-Shivam Road,17.401005200051,78.5136651276609,bus,RTC,RTC Cross Roads,2582.259923971675,False,True,10.0,4.333333333333333,11.666666666666666,9.5
g5XKqJft,Syndicate Bank Shivam,17.3971598530292,78.5121288989435,bus,CDP,Chikkadpally,2519.0699407081565,False,True,16.0,5.0,17.0,14.0
JYcbaciy,6 Number,17.3913666679683,78.5109876841306,bus,CDP,Chikkadpally,2672.4239055521675,False,True,34.0,19.333333333333332,40.333333333333336,38.0
h3dUxOt7,Gol Naka,17.3905802633628,78.5063508053932,bus,CDP,Chikkadpally,2200.235724009535,False,True,17.0,17.666666666666668,22.666666666666668,24.25
aL1OO4GH,Ali Cafe,17.3822561434741,78.518304077904,bus,MSB,Musarambagh,1902.054625436664,False,True,19.0,2.6666666666666665,15.0,14.25
t67QNigB,Sripuram Colony,17.3761922323013,78.5147756185305,bus,MSB,Musarambagh,863.8587238902246,False,True,12.0,0.6666666666666666,8.0,13.25
waBGSFEW,Moosarambhagh,17.3707215331711,78.5150009355259,bus,MSB,Musarambagh,440.6796978155019,True,True,17.0,1.0,3.6666666666666665,14.5
z4qkq5ED,Kothapet X Road,17.3683564641528,78.5383200592548,bus,CHP,Chaitanyapuri,40.848038044867835,True,True,45.0,18.333333333333332,17.0,30.25
8ayey0mt,Kothapet X Road,17.368062004757,78.5380786598212,bus,CHP,Chaitanyapuri,15.341447592686709,True,True,44.0,26.333333333333332,31.333333333333332,33.0
qWSDfInu,Amberpet,17.392241,78.516642,bus,MSB,Musarambagh,3232.801055408357,False,False,26.0,18.666666666666668,27.0,27.75
4veeZf8l,Lb Nagar,17.3459327377782,78.5505884885787,bus,LBN,L. B. Nagar,697.5392191683056,True,True,64.0,66.66666666666667,77.33333333333333,86.25
kp2atLnL,Lb Nagar,17.3437053260996,78.5555291175842,bus,LBN,L. B. Nagar,1424.4187554927648,False,True,8.0,2.3333333333333335,0.6666666666666666,1.25
uBRC6E1v,Abids Gpo,17.388783479337,78.4764039270628,bus,GAB,Gandhi Bhavan,624.1747716547059,True,True,8.0,4.0,2.3333333333333335,3.0
N5qUm2ju,Jyothi Nagar,17.3826977881547,78.4295846314062,bus,LKP,Lakdi-ka-pul,5994.762947836605,False,False,35.0,35.666666666666664,37.666666666666664,54.5
ZVypS8OB,Vasavi Trends,17.4147,78.3544,bus,RDG,Raidurg,5231.205336863371,False,False,5.0,0.0,1.6666666666666667,3.5
ijFEVs3A,Kokapet,17.4002,78.3531,bus,RDG,Raidurg,7142.446821300801,False,False,12.0,1.6666666666666667,3.0,3.75
wGQAO4BG,Gar Kokapet,17.4070455905344,78.3299338834014,bus,RDG,Raidurg,8563.043074530555,False,False,9.0,4.333333333333333,6.333333333333333,9.0
PwCq8mkM,Financial District,17.41552283,78.33384085,bus,RDG,Raidurg,7375.1071283986275,False,False,5.0,3.0,4.666666666666667,4.75
xDuZgZVu,Waverock,17.4191554724204,78.3472715912625,bus,RDG,Raidurg,5487.621400054904,False,False,37.0,17.333333333333332,14.666666666666666,29.75
ng3PytdJ,Icici Junction,17.422299365015,78.3382078469403,bus,RDG,Raidurg,6323.790860220948,False,False,29.0,17.0,18.666666666666668,21.0
xiDNKOoD,Wipro Circle,17.42619365,78.34065199,bus,RDG,Raidurg,5752.982029472601,False,False,36.0,18.666666666666668,24.0,28.5
LpMsCjvi,Infosys,17.436867,78.347239,bus,RDG,Raidurg,4367.838953957457,False,False,36.0,19.0,21.0,24.75
nghxlyD8,Iiit,17.4455058735302,78.3520651236176,bus,RDG,Raidurg,3645.147148255426,False,False,26.0,0.3333333333333333,4.0,12.25
vc5Q9ECR,Gachibowli,17.4396632784838,78.363563397081,bus,RDG,Raidurg,1988.2785444147908,False,True,14.0,7.0,12.333333333333334,12.25
EtcFXW6q,Infosys,17.437043,78.347696,bus,RDG,Raidurg,4298.678981675489,False,False,35.0,4.333333333333333,8.666666666666666,23.25
vaQXvzRy,Wipro Circle,17.42559514,78.34062483,bus,RDG,Raidurg,5793.846246452273,False,False,10.0,0.6666666666666666,1.0,1.75
xs3Aco3F,Narsinghi,17.3877640055706,78.3572166413068,bus,RDG,Raidurg,8600.442535839898,False,False,10.0,0.3333333333333333,2.3333333333333335,9.25
CHr4jZcC,Langar House,17.374015,78.417593,bus,NAM,Nampally,8021.193458319687,False,False,13.0,1.0,0.6666666666666666,3.0
pDqOfr7l,Jyothi Nagar-Mehdipatnam,17.3826904206909,78.4293640526899,bus,LKP,Lakdi-ka-pul,6022.172184417695,False,False,45.0,11.0,10.0,16.75
27zhjgdJ,Nizam College,17.3974506871114,78.4754535458593,bus,ASM,Assembly,661.3815167540456,True,True,75.0,19.666666666666668,35.0,43.5
JdUrmkif,Nalgonda X Road,17.375289,78.498622,bus,NEM,New Market,709.7862500575934,True,True,92.0,47.666666666666664,54.333333333333336,68.75
UQ45gtbS,Moosarambhagh,17.3695148407741,78.5167613704721,bus,MSB,Musarambagh,728.901448046866,True,True,90.0,38.666666666666664,58.0,60.5
5N6sI7Xj,Vivekananda Nagar Clny,17.486536,78.410808,bus,KUK,Kukatpally,281.78237325100974,True,True,40.0,16.0,25.333333333333332,56.75
JMkWVQta,Punjagutta,17.42642205664,78.4527374812683,bus,PUN,Panjagutta,454.6114959858643,True,True,40.0,10.0,18.0,22.0
8ZLe57qP,Nampally Public Garden,17.3962160722698,78.4712742269039,bus,ASM,Assembly,271.252334552707,True,True,35.0,1.3333333333333333,15.0,28.75
UzylZZpu,Gandhibavan,17.3877774853324,78.4719836256665,bus,GAB,Gandhi Bhavan,350.37354931397437,True,True,41.0,1.0,5.666666666666667,26.75
vgeabyCD,Osmangunj,17.3805594457203,78.4752623230739,bus,GAB,Gandhi Bhavan,834.3607406972832,False,True,45.0,1.6666666666666667,23.333333333333332,44.25
7uS0TD0D,Afzalgunj,17.3738,78.478,bus,OMC,Osmania Medical College,1346.4726374007676,False,True,91.0,52.0,72.0,94.5
OkZJgFnt,Cbs,17.3782254855396,78.4816789115201,bus,OMC,Osmania Medical College,575.7245669432676,True,True,111.0,84.33333333333333,112.33333333333333,125.25
Xm2G887A,Patancheruvu,17.5295419780095,78.2641071137562,bus,MYP,Miyapur,16384.215978525106,False,False,28.0,27.333333333333332,26.666666666666668,28.5
Q2gnLU7r,Cbcid Colony-Hydernagar,17.4989268162069,78.380252122879,bus,MYP,Miyapur,1096.009040377575,False,True,22.0,8.333333333333334,27.0,40.5
NwqcEy3z,Vasanth Nagar Bus Stop,17.49923794,78.3858737,bus,JNT,JNTU College,436.72239698876547,True,True,26.0,4.333333333333333,25.333333333333332,34.0
8F84QUv0,Remedy Hospital-Kuktplly,17.494976,78.398581,bus,KPH,KPHB Colony,499.69720576536486,True,True,12.0,5.333333333333333,10.0,11.75
XmHNScZT,Habib Nagar,17.47799857,78.42047118,bus,BLR,Balanagar,300.3226484211223,True,True,39.0,14.333333333333334,18.666666666666668,50.5
JCZL3DCn,Old Malakpet,17.3733481213262,78.5042372218346,bus,NEM,New Market,152.57266096870723,True,True,64.0,33.333333333333336,48.333333333333336,52.5
V75SK5uQ,Ngos Colony Bus Stop,17.3249120475687,78.5664939884533,bus,LBN,L. B. Nagar,4580.825706999891,False,False,24.0,35.333333333333336,23.333333333333332,34.0
HMwRapuL,Govt Hospital-Bn Reddy Nagar,17.3293621930359,78.565851598978,bus,LBN,L. B. Nagar,3998.1696863644447,False,False,18.0,18.333333333333332,21.333333333333332,24.0
hMMnmHh4,Red Tank,17.3291599763717,78.5690045343939,bus,LBN,L. B. Nagar,4324.7825367574005,False,False,14.0,18.666666666666668,21.0,23.75
vrnYxHIG,Banjara Hills Kaman,17.4082883567936,78.4387295869412,bus,IRM,Erra Manzil,3095.103974855023,False,False,4.0,7.0,7.0,10.5
AGb9Nb0A,Vengal Rao Building Road No-12,17.412,78.432,bus,JR5,Road No 5 Jubilee Hills,2978.5910523855628,False,True,3.0,4.666666666666667,7.333333333333333,11.0
f5ucfi9s,Mla Colony,17.414103,78.424086,bus,JR5,Road No 5 Jubilee Hills,2387.062717192255,False,True,4.0,4.0,9.0,11.75
EDUC3plA,Apollo Hospital-Jublie Hills,17.4185826431341,78.4127819897499,bus,JCP,Jubilee Hills Checkpost,1443.4471786725971,False,True,4.0,3.0,10.333333333333334,11.5
sHz79x1Y,Journalist Colony,17.4213570618352,78.4106522560623,bus,JCP,Jubilee Hills Checkpost,1112.9190895153442,False,True,8.0,9.333333333333334,19.0,22.5
py4aHdMg,Road No 45,17.4247042443751,78.4091913699967,bus,JCP,Jubilee Hills Checkpost,833.0167039328164,False,True,3.0,1.3333333333333333,9.333333333333334,8.25
zHKneATL,Peddamma Temple,17.4275711811317,78.4054120353021,bus,PED,Peddamma Gudi,626.4440973025447,True,True,6.0,0.6666666666666666,8.333333333333334,7.5
TJW89ejx,Ambedkar Open University,17.4342248773675,78.3963711479346,bus,MAD,Madhapur,738.1604489796584,True,True,4.0,0.0,5.333333333333333,8.0
VpkEjYQG,Cable Bridge,17.435749097719,78.3944034576416,bus,MAD,Madhapur,893.3439452092844,False,True,3.0,0.0,4.333333333333333,7.25
YfdCrVG1,Madhapur Police Station,17.4394570069756,78.3960154665042,bus,MAD,Madhapur,712.7435827059754,True,True,19.0,1.0,17.666666666666668,29.5
dfVfHiYS,Madhapur Petrol Pump,17.4411576427703,78.3895325660705,bus,DGC,Durgam Cheruvu,388.14900766923495,True,True,16.0,0.0,10.0,28.25
wvP3Epey,Image Hospital,17.4463582678616,78.3850050096321,bus,HTC,HITEC City,477.924371653252,True,True,16.0,0.0,7.333333333333333,28.0
UqKAXjCm,Hitech City (Cyber Towers),17.4508,78.3817,bus,HTC,HITEC City,338.4040304829901,True,True,18.0,0.0,7.333333333333333,31.5
LRe7WRO9,Shilparamam,17.4538362156136,78.3789794091004,bus,HTC,HITEC City,936.7511150902989,False,True,12.0,3.3333333333333335,8.333333333333334,31.25
MfWzlWid,Hitex,17.4554613057259,78.377545773983,bus,HTC,HITEC City,1255.0650587042614,False,True,12.0,0.0,0.3333333333333333,26.5
GTXNIgnf,Jayabheri,17.4581387061477,78.3700060844421,bus,HTC,HITEC City,2326.8792748106707,False,True,13.0,0.0,0.3333333333333333,22.5
GGNgPrOC,Kothaguda X Roads,17.4593566448455,78.3660417151489,bus,HTC,HITEC City,2900.316332934189,False,True,19.0,3.0,13.333333333333334,24.0
5yqYXf1E,Kondapur,17.465164655953,78.3636975288391,bus,HTC,HITEC City,3689.9828089922576,False,False,8.0,21.333333333333332,16.0,29.0
Iki5lvGg,Kondapur,17.4639161324681,78.3672541379928,bus,HTC,HITEC City,3187.883385394985,False,False,15.0,28.333333333333332,33.333333333333336,37.0
ICTzJR7V,Kothaguda-Kondapur,17.4586299813137,78.368176817894,bus,HTC,HITEC City,2584.2410538671215,False,True,16.0,32.333333333333336,28.333333333333332,40.5
yIv2OeeO,Jayabheri,17.4582602588777,78.3700788392015,bus,HTC,HITEC City,2329.1813020032982,False,True,11.0,26.0,23.666666666666668,37.25
aXaG6whU,Hitex,17.4551149839123,78.3781117252194,bus,HTC,HITEC City,1163.7092969720893,False,True,11.0,25.0,21.0,36.5
DeXR37jX,Hitech City (Cyber Towers),17.4499508389099,78.3825735798378,bus,HTC,HITEC City,162.85439114918609,True,True,16.0,26.0,24.0,41.5
NoZXEJpV,Image Hospital,17.4439504530533,78.3872205456377,bus,DGC,Durgam Cheruvu,158.32034007676296,True,True,12.0,24.666666666666668,20.0,40.0
ZWRRdBlS,Madhapur Petrol Pump,17.441419973866,78.3898922300528,bus,DGC,Durgam Cheruvu,403.6361663344054,True,True,13.0,23.0,22.0,40.75
WAUCrxs7,Madhapur Police Station,17.4389938717439,78.3970373970071,bus,MAD,Madhapur,550.7219980154721,True,True,16.0,23.0,24.666666666666668,40.0
blCozfco,Cable Bridge,17.4356365029577,78.3945375680923,bus,MAD,Madhapur,879.2488093073925,False,True,4.0,7.0,7.666666666666667,10.0
VWi0fX4e,Ambedkar Open University,17.43444908111,78.3965814564821,bus,MAD,Madhapur,693.7908847316203,True,True,4.0,6.0,7.333333333333333,9.75
widmsCfp,Peddamma Temple,17.4278065969838,78.4056158989794,bus,PED,Peddamma Gudi,580.7455656587423,True,True,6.0,5.333333333333333,7.333333333333333,11.25
psb3CiV9,Road No 45,17.4248782648559,78.409434556961,bus,JCP,Jubilee Hills Checkpost,789.5202660376812,True,True,4.0,4.0,7.333333333333333,9.75
zZiA1d01,Journalist Colony,17.4209934707316,78.411287983064,bus,JCP,Jubilee Hills Checkpost,1131.7397402077477,False,True,11.0,2.0,12.333333333333334,13.75
smY2COrl,Apollo Hospital-Jublie Hills,17.4182756831668,78.413468565777,bus,JCP,Jubilee Hills Checkpost,1483.5373792421167,False,True,5.0,1.0,8.666666666666666,10.25
zzgotOlz,Mla Colony,17.414393,78.424366,bus,JR5,Road No 5 Jubilee Hills,2346.2784873582586,False,True,5.0,0.6666666666666666,9.666666666666666,9.5
zKZkeMs6,Vengal Rao Building Road No-12,17.4120950483391,78.4320589865788,bus,JR5,Road No 5 Jubilee Hills,2969.3379890794195,False,True,4.0,0.3333333333333333,8.666666666666666,8.75
Cbj5tbV5,Banjara Hills Kaman,17.4095170566361,78.4380161733233,bus,IRM,Erra Manzil,3079.9169446380347,False,False,5.0,0.0,7.666666666666667,9.0
RpKg4BxO,Clock Tower Secunderabad,17.4432944002706,78.498583257586,bus,PRG,Parade Ground,160.61694885788432,True,True,3.0,4.666666666666667,5.666666666666667,3.5
5bo1bbrm,Rethibowli,17.394408,78.43122,bus,KHA,Khairatabad,4973.38592099717,False,False,32.0,37.333333333333336,35.333333333333336,53.5
LeH2BEeI,Gudi Malkapur X Roads,17.3872732832889,78.4297737784733,bus,LKP,Lakdi-ka-pul,5636.015283226932,False,False,15.0,35.0,28.0,43.75
UnXhYFnH,Attapur,17.370238,78.42947,bus,NAM,Nampally,6701.6669269202985,False,False,33.0,35.333333333333336,33.333333333333336,52.5
DsuY79Ab,Hyderguda X Road,17.3638515358785,78.4283008815172,bus,GAB,Gandhi Bhavan,7250.843721479663,False,False,38.0,34.666666666666664,33.0,56.5
fZp54Q46,Upperpally,17.3556778255234,78.4223488723185,bus,GAB,Gandhi Bhavan,8594.907165594492,False,False,38.0,35.0,32.0,55.75
6xxROlUL,Aramghar X Roads,17.3215384194171,78.4324557245113,bus,GAB,Gandhi Bhavan,11260.028994201275,False,False,32.0,23.333333333333332,53.333333333333336,58.0
EhWvEilH,Durga Nagar,17.3146325589378,78.4448209395794,bus,OMC,Osmania Medical College,11387.455476935289,False,False,24.0,19.333333333333332,48.666666666666664,48.25
IErfLDms,Mailardevpally,17.3162989056296,78.4496891542081,bus,MGB,Mahatma Gandhi Bus Station,10838.820323257816,False,False,24.0,13.666666666666666,47.0,50.0
qCwK5b48,Palle Cheruvu,17.3157759525913,78.4559869792249,bus,MGB,Mahatma Gandhi Bus Station,10503.349317224089,False,False,23.0,7.666666666666667,40.333333333333336,47.0
SA0QTWBz,Bandlaguda,17.3167285121707,78.4662330310163,bus,MGB,Mahatma Gandhi Bus Station,9850.729416904409,False,False,25.0,2.6666666666666665,35.333333333333336,44.75
5VXNBKMa,Hashamaba,17.3222416985113,78.4684330382144,bus,MGB,Mahatma Gandhi Bus Station,8970.614685950519,False,False,26.0,1.0,30.333333333333332,43.5
cu6mRmR3,Chandrayangutta,17.3268378429616,78.4764711992836,bus,MKL,Malakpet,7933.081258355303,False,False,36.0,0.6666666666666666,25.666666666666668,40.5
TzhOElvd,Dlrl,17.3290290715121,78.4825707895458,bus,NEM,New Market,7268.645695746571,False,False,15.0,0.0,17.666666666666668,29.25
jMbdev6Y,Phool Bagh,17.3301968237659,78.485770227606,bus,NEM,New Market,6931.022144568585,False,False,43.0,0.3333333333333333,15.0,48.25
VeCqKQnI,Hafiz Baba Nagar Hyd Bus Stop,17.3319786480314,78.4903460821167,bus,NEM,New Market,6466.402859825294,False,False,32.0,0.0,6.666666666666667,47.75
cJeCRNPE,Drdl Gate Bus Stop,17.336944,78.496292,bus,NEM,New Market,5545.053907291668,False,False,29.0,0.0,1.6666666666666667,44.75
f251qAmF,Pisal Banda,17.3408743479249,78.5025040642768,bus,MSB,Musarambagh,4715.542705814405,False,False,70.0,10.0,13.0,57.25
t6jFs2vZ,Owaisi Hospital,17.3435363203425,78.506718131387,bus,MSB,Musarambagh,4186.312791625458,False,False,59.0,9.333333333333334,9.666666666666666,53.75
xgj1wjWO,Champapet,17.3424175111965,78.5158934442745,bus,DSN,Dilsukh Nagar,4137.023611541166,False,False,34.0,7.333333333333333,8.0,50.0
N2jyRLqT,Manda Mallama X Road,17.3397375894995,78.524220507583,bus,LBN,L. B. Nagar,3725.385704846106,False,False,34.0,4.0,0.3333333333333333,27.75
sdwKwL7H,Gayatri Nagar X Road,17.337745,78.531394,bus,LBN,L. B. Nagar,2985.7065291037575,False,True,38.0,7.666666666666667,8.0,31.25
rCbqbiB4,Tkr Kaman,17.3377092436284,78.5361848471568,bus,LBN,L. B. Nagar,2477.776140475777,False,True,32.0,3.0,0.6666666666666666,11.75
ixaQ8kQB,Sagar X Road,17.3429628590539,78.5471472207659,bus,LBN,L. B. Nagar,1035.147065486417,False,True,61.0,4.333333333333333,7.333333333333333,37.0
hRpx46aJ,Uppal X Roads,17.4012611610812,78.5600741129808,bus,UPL,Uppal,179.30129879526498,True,True,65.0,47.333333333333336,46.333333333333336,46.25
bL2YDx7l,Sagar Ring Road,17.3415230105267,78.5461782627962,bus,LBN,L. B. Nagar,1269.553635367785,False,True,33.0,42.666666666666664,42.333333333333336,52.25
Ec33x1z9,Tkr Kaman,17.3374681096746,78.5361400984482,bus,LBN,L. B. Nagar,2508.620670348915,False,True,35.0,45.666666666666664,48.666666666666664,64.0
JSxAzCo9,Gayatri Nagar X Road,17.337499,78.531372,bus,LBN,L. B. Nagar,3010.6211397398715,False,False,34.0,34.333333333333336,41.333333333333336,57.75
wITcyOuZ,Manda Mallama X Rds,17.3396787022642,78.5235848240254,bus,LBN,L. B. Nagar,3812.479759724848,False,False,33.0,34.333333333333336,44.0,61.5
vBctYwrb,Champapet,17.3422335753195,78.5155184187164,bus,DSN,Dilsukh Nagar,4180.92672550933,False,False,34.0,25.0,43.666666666666664,53.75
DmBjyR5X,Owaisi Hospital,17.3433610172178,78.5068846194131,bus,MSB,Musarambagh,4207.894203396772,False,False,56.0,23.666666666666668,49.333333333333336,64.5
wxwf67W2,Midhani Bus Station,17.3399538699639,78.5037925094765,bus,MSB,Musarambagh,4799.003012944885,False,False,59.0,22.333333333333332,52.666666666666664,64.75
IW2PYgMJ,Drdl Gate Bus Stop,17.3368769926825,78.4967176621386,bus,NEM,New Market,5544.3600983185,False,False,22.0,12.666666666666666,38.333333333333336,46.25
0JAlzxpT,Hafiz Baba Nagar Hyd Bus Stop,17.3318968411465,78.490415817678,bus,NEM,New Market,6475.28578273786,False,False,34.0,11.666666666666666,45.333333333333336,50.25
z5xmnEt6,Phool Bagh,17.3301245600479,78.4859633768317,bus,NEM,New Market,6931.163528783319,False,False,47.0,15.666666666666666,50.0,53.25
XCkw4Nyw,Dlrl,17.32871884322,78.4827263152665,bus,NEM,New Market,7302.02294114156,False,False,8.0,3.6666666666666665,22.666666666666668,28.75
XFtDDMjz,Chandrayangutta,17.3265947272601,78.4765015506593,bus,MKL,Malakpet,7966.198610449189,False,False,25.0,5.333333333333333,25.666666666666668,50.0
QQCGeB8G,Hashamabad,17.3221181066863,78.4686765011248,bus,MGB,Mahatma Gandhi Bus Station,8978.500524100054,False,False,29.0,5.666666666666667,19.0,45.75
CCbehcS7,Bandlaguda,17.3166887581552,78.4663885821443,bus,MGB,Mahatma Gandhi Bus Station,9849.95858828567,False,False,27.0,4.666666666666667,14.0,44.5
It0A5Z2C,Palle Cheruvu,17.3156018284239,78.4559869766755,bus,MGB,Mahatma Gandhi Bus Station,10527.068179196354,False,False,24.0,2.6666666666666665,8.0,44.75
kD4VEJOZ,Mailardevpally,17.3160972708103,78.4494075336241,bus,MGB,Mahatma Gandhi Bus Station,10884.76229622191,False,False,28.0,2.3333333333333335,5.333333333333333,49.5
Pxmg1yJe,Durga Nagar-Aramghar,17.314699,78.443284,bus,GAB,Gandhi Bhavan,11474.100536594893,False,False,25.0,6.333333333333333,9.0,51.5
fsmqVQlp,Aramghar,17.321923936673,78.4313361375504,bus,GAB,Gandhi Bhavan,11295.849328419492,False,False,59.0,16.666666666666668,30.333333333333332,57.0
75l9xhCY,Shivarampally,17.3270558556829,78.4253410623255,bus,GAB,Gandhi Bhavan,11164.519435144286,False,False,42.0,9.333333333333334,17.666666666666668,40.25
GURjyKYg,Ws Colony,17.3326488371641,78.4266362331868,bus,GAB,Gandhi Bhavan,10398.402449714213,False,False,60.0,11.0,23.333333333333332,41.0
3awNd1Nt,Dairy Farm Upperpally,17.3459522600491,78.4157317129813,bus,GAB,Gandhi Bhavan,10193.097253508979,False,False,42.0,12.333333333333334,20.0,26.75
VRr55gta,Upperpally,17.356011771962,78.422264961366,bus,GAB,Gandhi Bhavan,8579.122308831691,False,False,42.0,10.0,14.666666666666666,19.5
N3JEm38W,Hyderguda X Roads,17.3638406357059,78.4280893110761,bus,GAB,Gandhi Bhavan,7278.666842101548,False,False,49.0,10.666666666666666,12.333333333333334,20.0
8M15jHYl,Attapur,17.3702238497244,78.4291984140872,bus,NAM,Nampally,6736.7006573618555,False,False,35.0,10.333333333333334,11.0,14.25
mJ8ZuY6u,Gudi Malkapur X Roads,17.3881563575305,78.42959406341,bus,LKP,Lakdi-ka-pul,5601.891741922924,False,False,14.0,2.3333333333333335,0.0,1.75
I78eTakJ,Rethibowli,17.3957059351167,78.4310746275802,bus,KHA,Khairatabad,4893.969376373442,False,False,31.0,10.333333333333334,7.666666666666667,15.0
yH2yDVEE,Uppal X Roads,17.4020086097413,78.5589838435319,bus,UPL,Uppal,337.74789111258053,True,True,32.0,2.3333333333333335,16.666666666666668,23.75
9DCzryFF,Budvel,17.3332591726593,78.4097349643707,bus,GAB,Gandhi Bhavan,12045.813328036817,False,False,20.0,3.6666666666666665,9.0,7.25
eRLCw0uQ,Rajendranagar,17.32189574613,78.4021013881793,bus,GAB,Gandhi Bhavan,13996.453794678255,False,False,14.0,2.6666666666666665,4.0,3.75
Swrd4aGR,Walanthari,17.3226895183209,78.3819311847579,bus,GAB,Gandhi Bhavan,16163.393661387508,False,False,5.0,0.6666666666666666,0.6666666666666666,0.25
TTRoWOhD,Himayath Sagar,17.325,78.374,bus,JCP,Jubilee Hills Checkpost,16446.627673278657,False,False,3.0,0.6666666666666666,0.3333333333333333,0.0
YzXpLExW,Himayath Sagar,17.3390660958163,78.3621204147545,bus,PED,Peddamma Gudi,15215.955375682282,False,False,6.0,0.6666666666666666,0.0,0.25
lDJjvb06,"Police Academy, Tspa Junction",17.3506870191219,78.3581242337822,bus,RDG,Raidurg,13922.735913220158,False,False,1.0,0.6666666666666666,0.0,0.0
TjsPFvGm,Ashramam-Machirevula,17.3729615894126,78.3496561606981,bus,RDG,Raidurg,11052.263369662202,False,False,4.0,0.6666666666666666,0.0,0.0
1MNtzQta,Kokapet X Rd,17.4007083036194,78.3521425755146,bus,RDG,Raidurg,7144.236702344794,False,False,6.0,1.0,2.0,1.75
